id_evento,evento annullato?,programma ufficiale,titolo_evento,id_luogo,nome_luogo,comune,provicia,indirizzo,latitudine,longitudine,luogo_unique_name
1887,SI,NO,Aion nei Sassi,172,Chiesa di San Pietro Barisano,Matera,Matera,Piazza San Pietro Barisano,40.668621,16.609211,Chiesa di San Pietro Barisano (Matera)
4612,SI,NO,Ales in concerto (chitarra e voce),223,El Tablao,Matera,Matera,Via Cesare Beccaria 10,40.6686586,16.6047758,El Tablao (Matera)
1659,SI,SI,Amore e Psiche,463,Palazzo Vescovile,Melfi,Potenza,Piazza Duomo,40.99648,15.65881,Palazzo Vescovile (Melfi)
4168,SI,NO,Angelo Galantini | 14 giugno 1979... Il Concerto,237,Galleria Cine Sud,Matera,Matera,Via Antonio Passarelli 29/31,40.6653009,16.6042835,Galleria Cine Sud (Matera)
2046,SI,SI,ArCo - Archivio digitale di Comunità,24,Luoghi vari,Roccanova,Potenza,,40.2127,16.2028,*Luoghi vari (Roccanova)
2602,SI,SI,"Art Thinking, 'Art Thinking: La relazione tra vivere d'Arte e Arte da vivere'",273,Hotel Del Campo,Matera,Matera,Via Lucrezio 1,40.681042,16.583872,Hotel Del Campo (Matera)
4694,SI,NO,Assolo a Due,223,El Tablao,Matera,Matera,Via Cesare Beccaria 10,40.6686586,16.6047758,El Tablao (Matera)
3822,SI,NO,Atomic Bass Trio | Rosetta Jazz Club,552,Rosetta Jazz Club,Matera,Matera,Via Gugliemo Marconi 49,40.674467,16.6004679,Rosetta Jazz Club (Matera)
3623,SI,SI,Cineforum in Periferia,611,Vico Giordano Bruno,Matera,Matera,Vico Giordano Bruno 4,40.67676,16.59476,Vico Giordano Bruno (Matera)
1978,SI,NO,Concerto dell'Epifania per la Solidarietà,159,Chiesa della Santa Famiglia,Matera,Matera,Via Enrico Mattei,40.6787856,16.5807278,Chiesa della Santa Famiglia (Matera)
4057,SI,NO,Curare e guarire l'articolazione del ginocchio: la guida definitiva,36,Online,Matera,Matera,,,,*Online (Matera)
2367,SI,NO,Drawing Machine,430,MUSMA - Museo Della Scultura Contemporanea,Matera,Matera,Via San Giacomo 20,40.666102,16.612281,MUSMA - Museo Della Scultura Contemporanea (Matera)
4522,SI,SI,Echi d'Acqua,43,Abbazia di San Michele Arcangelo,Montescaglioso,Matera,Piazza Del Popolo 14,40.558247,16.664195,Abbazia di San Michele Arcangelo (Montescaglioso)
4522,SI,SI,Echi d'Acqua,468,Palombaro Lungo,Matera,Matera,Piazza Vittorio Veneto,40.666922,16.606521,Palombaro Lungo (Matera)
1730,SI,SI,Echi d'Acqua,468,Palombaro Lungo,Matera,Matera,Piazza Vittorio Veneto,40.666922,16.606521,Palombaro Lungo (Matera)
3823,SI,NO,Enzo Marino Band - Serata Evento,561,San Barbato Resort Spa & Golf,Lavello,Potenza,S.S. 93 Km 56300,41.03509819,15.7705307,San Barbato Resort Spa & Golf (Lavello)
2972,SI,NO,Estemporanea di Pittura,479,Parco Giovanni Paolo II,Matera,Matera,Via Lucana,40.665036,16.606337,Parco Giovanni Paolo II (Matera)
2972,SI,NO,Estemporanea di Pittura,77,Biblioteca Provinciale T. Stigliani,Matera,Matera,Piazza Vittorio Veneto,40.667170,16.605515,Biblioteca Provinciale T. Stigliani (Matera)
2028,SI,SI,Festival dello sguardo,413,Municipio Guardia Perticara,Guardia Perticara,Potenza,Viale Principe Umberto 28,40.363237,16.098071,Municipio Guardia Perticara (Guardia Perticara)
3456,SI,SI,First Man,297,Jazzo Gattini - Centro Visite Parco Della Murgia Materana,Matera,Matera,Contrada Murgia Timone,40.672428,16.629824,Jazzo Gattini - Centro Visite Parco Della Murgia Materana (Matera)
4253,SI,SI,Gardentopia day #3,260,Giardino Di Comunità,San Mauro Forte,Matera,Via San Donato,40.48732,16.25287,Giardino Di Comunità (San Mauro Forte)
4253,SI,SI,Gardentopia day #3,435,Open Design School - Casino Padula,Matera,Matera,Via Dei Pesci,40.642424,16.624893,Open Design School - Casino Padula (Matera)
1652,SI,SI,Grido Della Terra - Minerali Clandestini,463,Palazzo Vescovile,Melfi,Potenza,Piazza Duomo,40.99648,15.65881,Palazzo Vescovile (Melfi)
2656,SI,NO,Hathor Plectrum Quartet,313,Libreria The Sassi Bookstore,Matera,Matera,Via Lucana 184,40.663085,16.6084328,Libreria The Sassi Bookstore (Matera)
2053,SI,NO,I Misteri di Palazzo Lanfranchi,456,Palazzo Lanfranchi,Matera,Matera,Piazza Giovanni Pascoli 1,40.663230,16.610342,Palazzo Lanfranchi (Matera)
1657,SI,SI,Il Sale Della Terra,463,Palazzo Vescovile,Melfi,Potenza,Piazza Duomo,40.99648,15.65881,Palazzo Vescovile (Melfi)
2182,SI,SI,Johann Sebastian Circus di Circo El Grito,477,Parco Del Castello Tramontano,Matera,Matera,Via Castello,40.66385,16.60625,Parco Del Castello Tramontano (Matera)
2176,SI,SI,L’après-midi d’un foehn,477,Parco Del Castello Tramontano,Matera,Matera,Via Castello,40.66385,16.60625,Parco Del Castello Tramontano (Matera)
1658,SI,SI,La Bellezza Svelata Della Citta' Di Melfi,463,Palazzo Vescovile,Melfi,Potenza,Piazza Duomo,40.99648,15.65881,Palazzo Vescovile (Melfi)
3916,SI,NO,La fontana di Alpe & il mito della felicità,613,Villa Comunale,Calciano,Matera,Via Roma,40.5882558,16.1940561,Villa Comunale (Calciano)
1819,SI,SI,La Passione Vivente Di Cristo,173,Chiesa di San Pietro Caveoso,Matera,Matera,Piazza San Pietro Caveoso,40.66441,16.61258,Chiesa di San Pietro Caveoso (Matera)
1819,SI,SI,La Passione Vivente Di Cristo,516,Piazza San Pietro Caveoso,Matera,Matera,Piazza San Pietro Caveoso,40.664606,16.611965,Piazza San Pietro Caveoso (Matera)
2017,SI,NO,Le Parteras. Le Eroine Delle Ande,275,Hotel Le Monacelle,Matera,Matera,Via Riscatto 15,40.667523,16.611559,Hotel Le Monacelle (Matera)
2382,SI,NO,Ligabue / Tribute band / Radio freccia,223,El Tablao,Matera,Matera,Via Cesare Beccaria 10,40.6686586,16.6047758,El Tablao (Matera)
4262,SI,NO,Lo Stato dell'Arte 17,156,Chiesa del Cristo Flagellato (Ex Ospedale San Rocco),Matera,Matera,Via San Biagio 31,40.667515,16.607794,Chiesa del Cristo Flagellato (Ex Ospedale San Rocco) (Matera)
4114,SI,NO,Luce di sincrotrone e Beni Culturali,571,Scuola Di Alta Formazione E Studio Iscr - Istituto Superiore Per La Conservazione Ed Il Restauro,Matera,Matera,Via Luigi Lavista 5,40.665709,16.606122,Scuola Di Alta Formazione E Studio Iscr - Istituto Superiore Per La Conservazione Ed Il Restauro (Matera)
3107,SI,SI,Martina Muzi nel giardino Erba del vicinato,251,Giardino Di Comunità,Matera,Matera,Via Galileo Galilei,40.67691,16.59436,Giardino Di Comunità (Matera)
4709,SI,NO,Matera History&Fun Game,572,Sede A.P.S. Giallo Sassi,Matera,Matera,Via Vincenzo Cappelluti 16,40.66551,16.60226,Sede A.P.S. Giallo Sassi (Matera)
4172,SI,NO,Mauro Vallinotto | Matti,203,Complesso Del Casale,Matera,Matera,Via Casale 63,40.668838,16.610581,Complesso Del Casale (Matera)
3124,SI,SI,Michael Leung nei giardini di comunità Matera,49,Agoragri,Matera,Matera,Viale Italia,40.672340,16.590166,Agoragri (Matera)
3124,SI,SI,Michael Leung nei giardini di comunità Matera,265,Giardino Namastè,Matera,Matera,Via Alessandro Manzoni 5,40.67359,16.59265,Giardino Namastè (Matera)
4295,SI,SI,Open Printing Design,435,Open Design School - Casino Padula,Matera,Matera,Via Dei Pesci,40.642424,16.624893,Open Design School - Casino Padula (Matera)
4296,SI,SI,Open Source Design,435,Open Design School - Casino Padula,Matera,Matera,Via Dei Pesci,40.642424,16.624893,Open Design School - Casino Padula (Matera)
1613,SI,SI,Organi a Canne,183,Chiesa di Santa Maria Della Croce,Ferrandina,Matera,Piazza Plebiscito,40.49260,16.45751,Chiesa di Santa Maria Della Croce (Ferrandina)
3390,SI,NO,Pitagora e Ippaso da Metaponto,595,Tempio di Hera Tavole Palatine,Bernalda,Matera,Tempio Di Hera,40.383882,16.823661,Tempio di Hera Tavole Palatine (Bernalda)
3391,SI,NO,Pitagora e Ippaso da Metaponto,156,Chiesa del Cristo Flagellato (Ex Ospedale San Rocco),Matera,Matera,Via San Biagio 31,40.667515,16.607794,Chiesa del Cristo Flagellato (Ex Ospedale San Rocco) (Matera)
2037,SI,NO,Premio Moda Eccellenze Internazionali,523,Piazza Vittorio Veneto,Matera,Matera,Piazza Vittorio Veneto,40.666916,16.606227,Piazza Vittorio Veneto (Matera)
2036,SI,NO,Premio Moda Eccellenze Internazionali,523,Piazza Vittorio Veneto,Matera,Matera,Piazza Vittorio Veneto,40.666916,16.606227,Piazza Vittorio Veneto (Matera)
3568,SI,NO,"Presentazione esclusiva estate/autunno, di Ivan Venerucci Italian Style",523,Piazza Vittorio Veneto,Matera,Matera,Piazza Vittorio Veneto,40.666916,16.606227,Piazza Vittorio Veneto (Matera)
4852,SI,NO,Presepi in Mostra,452,Palazzo Della Provincia,Matera,Matera,Via Domenico Ridola 60,40.662108,16.610203,Palazzo Della Provincia (Matera)
4877,SI,NO,Presepi in Mostra,452,Palazzo Della Provincia,Matera,Matera,Via Domenico Ridola 60,40.662108,16.610203,Palazzo Della Provincia (Matera)
1664,SI,SI,Prison Felloshp - Esperienza di giustizia riparativa,448,Palazzo Arcivescovile,Matera,Matera,Piazza Duomo 7,40.666635,16.611435,Palazzo Arcivescovile (Matera)
2044,SI,SI,Quadri Di Poesia,33,Luoghi vari,Valsinni,Matera,,40.673679,16.603487,*Luoghi vari (Valsinni)
2565,SI,NO,Radio Vintage,223,El Tablao,Matera,Matera,Via Cesare Beccaria 10,40.6686586,16.6047758,El Tablao (Matera)
2220,SI,NO,San Michele in Monte Laureto a Putignano,77,Biblioteca Provinciale T. Stigliani,Matera,Matera,Piazza Vittorio Veneto,40.667170,16.605515,Biblioteca Provinciale T. Stigliani (Matera)
1623,SI,SI,Simo de Florentia,158,Chiesa Dell'Annunziata,Maratea,Potenza,Via dell'Unità d'italia,39.99241,15.72258,Chiesa Dell'Annunziata (Maratea)
3653,SI,NO,Tutti i pani del mondo,233,Fondazione Sassi,Matera,Matera,Via San Giovanni Vecchio 24,40.668090,16.609282,Fondazione Sassi (Matera)
2935,SI,SI,U Iurt: Giardino di Mammamiaaa,49,Agoragri,Matera,Matera,Viale Italia,40.672340,16.590166,Agoragri (Matera)
2144,SI,SI,Vortex,477,Parco Del Castello Tramontano,Matera,Matera,Via Castello,40.66385,16.60625,Parco Del Castello Tramontano (Matera)
4763,NO,SI,_Ripetizione Spaziata _,143,Cava Paradiso,Matera,Matera,Contrada La Palomba,40.680587,16.605294,Cava Paradiso (Matera)
3910,NO,SI,[re]BO[u]NDS,43,Abbazia di San Michele Arcangelo,Montescaglioso,Matera,Piazza Del Popolo 14,40.558247,16.664195,Abbazia di San Michele Arcangelo (Montescaglioso)
3910,NO,SI,[re]BO[u]NDS,203,Complesso Del Casale,Matera,Matera,Via Casale 63,40.668838,16.610581,Complesso Del Casale (Matera)
2399,NO,NO,#èunaltrAvventura...sembra strana ma la viviamo lo stesso,312,Libreria Mondadori,Matera,Matera,Piazza Vittorio Veneto 16,40.6665822,16.6062613,Libreria Mondadori (Matera)
2718,NO,NO,#MiniPlay14,301,La Finestra,Matera,Matera,Viale Ionio 65,40.670732,16.581690,La Finestra (Matera)
3116,NO,SI,#URLA – Sound parade,523,Piazza Vittorio Veneto,Matera,Matera,Piazza Vittorio Veneto,40.666916,16.606227,Piazza Vittorio Veneto (Matera)
3783,NO,NO,#VicinatoInFesta,562,Sant'Angelo Luxury Resort,Matera,Matera,Rione Pianelle,40.665177,16.611942,Sant'Angelo Luxury Resort (Matera)
2817,NO,SI,#VULTUREmozioni,547,Rionero In Vulture,Rionero In Vulture,Potenza,Via Umberto I,40.925914,15.673194,Rionero In Vulture (Rionero In Vulture)
3720,NO,SI,1/16’ - Origin,193,Chiesa Rupestre di Santa Maria De Armenis,Matera,Matera,Sasso Caveoso,40.6626052,16.6111184,Chiesa Rupestre di Santa Maria De Armenis (Matera)
2891,NO,NO,1° Festival Effimero della Città dei Sassi,545,Rione Piccianello,Matera,Matera,Via G. Marconi,40.675638,16.599547,Rione Piccianello (Matera)
2944,NO,SI,1° giorno di Festival Breadway,539,Quartiere Piccianello,Matera,Matera,Quartiere Piccianello,40.67468,16.6014,Quartiere Piccianello (Matera)
2400,NO,NO,1° Raduno Nazionale dei Roma Club AIRC,278,Hotel Palace,Matera,Matera,Piazza Bianco 1,40.663386,16.597812,Hotel Palace (Matera)
4793,NO,NO,10 HP - Tributo a Lucio Battisti,223,El Tablao,Matera,Matera,Via Cesare Beccaria 10,40.6686586,16.6047758,El Tablao (Matera)
4200,NO,NO,100 galline tra i Sassi di Matera,543,Residence Sassi San Gennaro,Matera,Matera,Via San Gennaro,40.666555,16.6101966,Residence Sassi San Gennaro (Matera)
4495,NO,NO,100 voci di Nuoro per Matera,161,Chiesa di Cristo Re,Matera,Matera,Via Antonio Gramsci 11,40.66376,16.60311,Chiesa di Cristo Re (Matera)
4375,NO,NO,12 verdi fatiche: Eracle e il suo mito,418,Museo Archeologico Nazionale Della Basilicata Dinu Adamesteanu,Potenza,Potenza,Via Andrea Serrao 11,40.6398968,15.8061551,Museo Archeologico Nazionale Della Basilicata Dinu Adamesteanu (Potenza)
4307,NO,NO,12. Gianni Zanni,419,Museo Archeologico Nazionale Della Siritide,Policoro,Matera,Via Cristoforo Colombo 8,40.217083,16.669861,Museo Archeologico Nazionale Della Siritide (Policoro)
2248,NO,NO,12° Giornata Nazionale del Braille - Matera 2019,156,Chiesa del Cristo Flagellato (Ex Ospedale San Rocco),Matera,Matera,Via San Biagio 31,40.667515,16.607794,Chiesa del Cristo Flagellato (Ex Ospedale San Rocco) (Matera)
2179,NO,NO,12° Giornata Nazionale del Braille - Matera 2019,156,Chiesa del Cristo Flagellato (Ex Ospedale San Rocco),Matera,Matera,Via San Biagio 31,40.667515,16.607794,Chiesa del Cristo Flagellato (Ex Ospedale San Rocco) (Matera)
4151,NO,NO,15° Convegno Nazionale,275,Hotel Le Monacelle,Matera,Matera,Via Riscatto 15,40.667523,16.611559,Hotel Le Monacelle (Matera)
4675,NO,NO,1819 2019 il Bicentenario,230,Ferrara Art Gallery,Matera,Matera,Via Tommaso Stigliani 50,40.6694,16.6072,Ferrara Art Gallery (Matera)
3011,NO,SI,1979-2019: un sogno chiamato Serie B quarant’anni dopo,195,Cinema Il Piccolo,Matera,Matera,Via XX Settembre 14,40.66805,16.60663,Cinema Il Piccolo (Matera)
3466,NO,NO,2 Biglietti della lotteria,297,Jazzo Gattini - Centro Visite Parco Della Murgia Materana,Matera,Matera,Contrada Murgia Timone,40.672428,16.629824,Jazzo Gattini - Centro Visite Parco Della Murgia Materana (Matera)
3617,NO,NO,2° Convegno Nazionale T.E.S,123,Casa Per Ferie Sant'Anna,Matera,Matera,Via Lanera 14,40.6628541,16.605231,Casa Per Ferie Sant'Anna (Matera)
2945,NO,SI,2° giorno di Festival Breadway,539,Quartiere Piccianello,Matera,Matera,Quartiere Piccianello,40.67468,16.6014,Quartiere Piccianello (Matera)
4036,NO,NO,20 anni di Race For The Cure,156,Chiesa del Cristo Flagellato (Ex Ospedale San Rocco),Matera,Matera,Via San Biagio 31,40.667515,16.607794,Chiesa del Cristo Flagellato (Ex Ospedale San Rocco) (Matera)
2325,NO,NO,200 anni dell'Infinito di Giacomo Leopardi,330,Mula+,Latronico,Potenza,Vico Stabilimento,40.089328,15.981049,Mula+ (Latronico)
3482,NO,SI,2019 Missione Chiaro di Luna,514,Piazza San Giovanni,Matera,Matera,Piazza San Giovanni,40.6676,16.60803,Piazza San Giovanni (Matera)
4846,NO,SI,2019 passi nello sport,502,Piazza Giovanni Pascoli,Matera,Matera,Piazza Giovanni Pascoli,40.66320,16.61009,Piazza Giovanni Pascoli (Matera)
4846,NO,SI,2019 passi nello sport,523,Piazza Vittorio Veneto,Matera,Matera,Piazza Vittorio Veneto,40.666916,16.606227,Piazza Vittorio Veneto (Matera)
2108,NO,NO,3 P - Padre Pino Puglisi (musical),440,Oratorio Parrocchia Cristo Re,Pisticci,Matera,Via Cristo Re,40.3896952,16.5631707,Oratorio Parrocchia Cristo Re (Pisticci)
2946,NO,SI,3° giorno di Festival Breadway,539,Quartiere Piccianello,Matera,Matera,Quartiere Piccianello,40.67468,16.6014,Quartiere Piccianello (Matera)
2314,NO,NO,3° Trofeo Città dei Poeti,445,Palasport Montalbano Jonico,Montalbano Jonico,Matera,Rione Montesano,40.28911,16.56758,Palasport Montalbano Jonico (Montalbano Jonico)
2136,NO,SI,7 14 21 28 di Flavia Mastrella e Antonio Rezza,477,Parco Del Castello Tramontano,Matera,Matera,Via Castello,40.66385,16.60625,Parco Del Castello Tramontano (Matera)
3467,NO,NO,7 Uomini a mollo,297,Jazzo Gattini - Centro Visite Parco Della Murgia Materana,Matera,Matera,Contrada Murgia Timone,40.672428,16.629824,Jazzo Gattini - Centro Visite Parco Della Murgia Materana (Matera)
3994,NO,SI,70 X 7 The Meal Act XXXVI,330,Mula+,Latronico,Potenza,Vico Stabilimento,40.089328,15.981049,Mula+ (Latronico)
2277,NO,NO,70x100 per colorare insieme,156,Chiesa del Cristo Flagellato (Ex Ospedale San Rocco),Matera,Matera,Via San Biagio 31,40.667515,16.607794,Chiesa del Cristo Flagellato (Ex Ospedale San Rocco) (Matera)
4824,NO,NO,9 FOGLIE,589,Teatro Comunale Guerieri,Matera,Matera,Piazza Vittorio Veneto 23,40.666918,16.605920,Teatro Comunale Guerieri (Matera)
2463,NO,NO,"A Bottega, il nuovo corso di disegno di Mimmo Centonze",77,Biblioteca Provinciale T. Stigliani,Matera,Matera,Piazza Vittorio Veneto,40.667170,16.605515,Biblioteca Provinciale T. Stigliani (Matera)
2463,NO,NO,"A Bottega, il nuovo corso di disegno di Mimmo Centonze",586,Studio Mimmo Centonze,Matera,Matera,Via Carlo Collodi 2,40.66888,16.59392,Studio Mimmo Centonze (Matera)
3643,NO,SI,A casa nostra,456,Palazzo Lanfranchi,Matera,Matera,Piazza Giovanni Pascoli 1,40.663230,16.610342,Palazzo Lanfranchi (Matera)
3709,NO,NO,A cosa serve la Fotografia?,465,Palazzo Viceconte,Matera,Matera,Via San Potito 7,40.666575,16.612216,Palazzo Viceconte (Matera)
3227,NO,NO,"A due voci: Musica cubana, argentina, cilena",223,El Tablao,Matera,Matera,Via Cesare Beccaria 10,40.6686586,16.6047758,El Tablao (Matera)
2704,NO,NO,A Ravatèn d' Turs',542,Rabatana,Tursi,Matera,Strada Provinciale Della Rabatana Di Tursi,40.2530755,16.4723429,Rabatana (Tursi)
3557,NO,SI,A vijë a vijë- Voci e sentieri dello Stato di Noia,374,Municipio,Noepoli,Potenza,Piazza Guglielmo Marconi 12,40.087305,16.328477,Municipio (Noepoli)
4273,NO,NO,ABANICO - Acoustic Duo,208,Concept - Lunatic Bistrot,Bernalda,Matera,Via Cairoli 5,40.409626,16.688249,Concept - Lunatic Bistrot (Bernalda)
2070,NO,NO,Abbarabbis live@1806 Café,37,1806 Café,Matera,Matera,Via Lucana 238,40.6613076,16.61025,1806 Café (Matera)
2639,NO,NO,ABBEY Market,43,Abbazia di San Michele Arcangelo,Montescaglioso,Matera,Piazza Del Popolo 14,40.558247,16.664195,Abbazia di San Michele Arcangelo (Montescaglioso)
4704,NO,SI,"Abitare gli archivi: Vita, movimento, raccolto",143,Cava Paradiso,Matera,Matera,Contrada La Palomba,40.680587,16.605294,Cava Paradiso (Matera)
3325,NO,NO,Abitare lo spazio e il tempo,123,Casa Per Ferie Sant'Anna,Matera,Matera,Via Lanera 14,40.6628541,16.605231,Casa Per Ferie Sant'Anna (Matera)
4142,NO,SI,About a Worker nel giardino di Rapone,256,Giardino Di Comunità,Rapone,Potenza,Viale A. Moro 23,40.84616,15.49739,Giardino Di Comunità (Rapone)
3463,NO,NO,Abracadabra,297,Jazzo Gattini - Centro Visite Parco Della Murgia Materana,Matera,Matera,Contrada Murgia Timone,40.672428,16.629824,Jazzo Gattini - Centro Visite Parco Della Murgia Materana (Matera)
3507,NO,SI,"Acerenza, il borgo medievale, la Città Cattedrale",333,Municipio,Acerenza,Potenza,Via Vittorio Emanuele III,40.793367,15.938444,Municipio (Acerenza)
2454,NO,NO,Acoustic 2,223,El Tablao,Matera,Matera,Via Cesare Beccaria 10,40.6686586,16.6047758,El Tablao (Matera)
3129,NO,NO,Acoustic Fuzz,223,El Tablao,Matera,Matera,Via Cesare Beccaria 10,40.6686586,16.6047758,El Tablao (Matera)
2456,NO,NO,Acoustic Night,223,El Tablao,Matera,Matera,Via Cesare Beccaria 10,40.6686586,16.6047758,El Tablao (Matera)
2105,NO,NO,Acoustic Night-Virago duo @1806 Café,37,1806 Café,Matera,Matera,Via Lucana 238,40.6613076,16.61025,1806 Café (Matera)
4791,NO,NO,Adorazione dei Magi,43,Abbazia di San Michele Arcangelo,Montescaglioso,Matera,Piazza Del Popolo 14,40.558247,16.664195,Abbazia di San Michele Arcangelo (Montescaglioso)
4113,NO,NO,Affeschi all'infrarosso,180,Chiesa di Santa Lucia Alle Malve,Matera,Matera,Rione Malve,40.6634787,16.6117657,Chiesa di Santa Lucia Alle Malve (Matera)
4079,NO,NO,Africa Unite System of a Sound & Architorti in concerto,142,Cava Del Sole,Matera,Matera,Strada Statale 7 Via Appia 32,40.681151,16.598275,Cava Del Sole (Matera)
2705,NO,NO,After Midnight In Trio,223,El Tablao,Matera,Matera,Via Cesare Beccaria 10,40.6686586,16.6047758,El Tablao (Matera)
4689,NO,SI,"Agorà La Martella, Matera",592,Teatro Ludovico Quaroni,Matera,Matera,Piazza Monte Grappa,40.66077,16.53582,Teatro Ludovico Quaroni (Matera)
3847,NO,SI,Agorà Madri e Figli,143,Cava Paradiso,Matera,Matera,Contrada La Palomba,40.680587,16.605294,Cava Paradiso (Matera)
4080,NO,SI,Agorà Madri e Figli,143,Cava Paradiso,Matera,Matera,Contrada La Palomba,40.680587,16.605294,Cava Paradiso (Matera)
4580,NO,SI,Agorà Moliterno,78,Blibliomediateca,Moliterno,Potenza,Piazza Vittorio Veneto,40.241704,15.868853,Blibliomediateca (Moliterno)
4642,NO,SI,Agorà Tursi,148,Centro Polifunzionale,Tursi,Matera,Via Sant'Anna,40.245250,16.470669,Centro Polifunzionale (Tursi)
4576,NO,SI,Agorà Venosa,67,Auditorium del Centro di Riabilitazione dei Padri Trinitari,Venosa,Potenza,Piazza Don Bosco 3,40.966635,15.824732,Auditorium del Centro di Riabilitazione dei Padri Trinitari (Venosa)
4055,NO,SI,Agricultura Next,349,Municipio,Castelsaraceno,Potenza,Piazza Piano Della Corte 1,40.162979,15.991011,Municipio (Castelsaraceno)
1930,NO,SI,Ai confini dell'Europa: da Versailles a Berlino,99,Casa Cava,Matera,Matera,Via San Pietro Barisano 47,40.668458,16.609254,Casa Cava (Matera)
1927,NO,SI,Ai confini dell’Europa: da Adrianopoli a Poitiers,99,Casa Cava,Matera,Matera,Via San Pietro Barisano 47,40.668458,16.609254,Casa Cava (Matera)
1929,NO,SI,Ai confini della fede: cristiani e musulmani alla crociata,99,Casa Cava,Matera,Matera,Via San Pietro Barisano 47,40.668458,16.609254,Casa Cava (Matera)
1931,NO,SI,Ai confini della speranza: il viaggio degli emigranti,99,Casa Cava,Matera,Matera,Via San Pietro Barisano 47,40.668458,16.609254,Casa Cava (Matera)
1928,NO,SI,Ai confini della terra: da Colombo a Google,99,Casa Cava,Matera,Matera,Via San Pietro Barisano 47,40.668458,16.609254,Casa Cava (Matera)
2065,NO,NO,Aion nei Sassi,172,Chiesa di San Pietro Barisano,Matera,Matera,Piazza San Pietro Barisano,40.668621,16.609211,Chiesa di San Pietro Barisano (Matera)
3088,NO,NO,Alessandro Sipolo live,612,Vicolo Cieco Salsamenteria,Matera,Matera,Via Fiorentini 74,40.6674298,16.6102844,Vicolo Cieco Salsamenteria (Matera)
3052,NO,NO,Alessi Tea & Coffee Piazza and Towers. ARCHITECTURE meets DESIGN,87,Caliainteriors,Matera,Matera,Via Annunziatella 50,40.6717027,16.6046181,Caliainteriors (Matera)
4696,NO,SI,Aliano con gli occhi di Carlo Levi,334,Municipio,Aliano,Matera,Vico Garibaldi,40.311498,16.232037,Municipio (Aliano)
3656,NO,NO,Alice,307,Largo Giacomo Leopardi,Matera,Matera,Largo Giacomo Leopardi,40.6729692,16.5950847,Largo Giacomo Leopardi (Matera)
4034,NO,SI,Aliens' Party,583,Stazione Di Ferrandina Scalo,Ferrandina,Matera,Stazione Di Ferrandina Scalo,40.516708,16.475209,Stazione Di Ferrandina Scalo (Ferrandina)
2902,NO,NO,Alimentazione Consapevole,287,Imieimomenti Estetica E Benessere,Matera,Matera,Piazza Delle Costellazioni,40.6397585,16.6257597,Imieimomenti Estetica E Benessere (Matera)
4662,NO,SI,All'inizio fu l'onda,430,MUSMA - Museo Della Scultura Contemporanea,Matera,Matera,Via San Giacomo 20,40.666102,16.612281,MUSMA - Museo Della Scultura Contemporanea (Matera)
3646,NO,SI,Alla furca!,456,Palazzo Lanfranchi,Matera,Matera,Piazza Giovanni Pascoli 1,40.663230,16.610342,Palazzo Lanfranchi (Matera)
2384,NO,NO,Alla scoperta dei 5 sensi,299,La Bottega Giù Al Nord,Matera,Matera,Via Carlo Collodi 43,40.6718335,16.5914176,La Bottega Giù Al Nord (Matera)
3844,NO,NO,Alla Scoperta di Antichi Sapori,132,Castello Di Lagopesole,Avigliano,Potenza,,40.807279,15.733108,Castello Di Lagopesole (Avigliano)
2711,NO,NO,Alle radici dell'Umano,99,Casa Cava,Matera,Matera,Via San Pietro Barisano 47,40.668458,16.609254,Casa Cava (Matera)
4333,NO,SI,alLone*,579,Spazio Dell'Angelo,Matera,Matera,Via Sant'angelo 68,40.665851,16.612349,Spazio Dell'Angelo (Matera)
4056,NO,SI,alLone*,579,Spazio Dell'Angelo,Matera,Matera,Via Sant'angelo 68,40.665851,16.612349,Spazio Dell'Angelo (Matera)
4230,NO,SI,alLone*,579,Spazio Dell'Angelo,Matera,Matera,Via Sant'angelo 68,40.665851,16.612349,Spazio Dell'Angelo (Matera)
4242,NO,SI,Alpha,129,Casa Tudisco,Melfi,Potenza,Trav. Via Lucca 2,40.99537,15.64281,Casa Tudisco (Melfi)
4314,NO,SI,Alpha,129,Casa Tudisco,Melfi,Potenza,Trav. Via Lucca 2,40.99537,15.64281,Casa Tudisco (Melfi)
4316,NO,SI,Alpha,129,Casa Tudisco,Melfi,Potenza,Trav. Via Lucca 2,40.99537,15.64281,Casa Tudisco (Melfi)
4239,NO,SI,Amando Carmen (2016),195,Cinema Il Piccolo,Matera,Matera,Via XX Settembre 14,40.66805,16.60663,Cinema Il Piccolo (Matera)
2839,NO,NO,Anche quando l'alba non c'era - Luis Gomez de Teran,430,MUSMA - Museo Della Scultura Contemporanea,Matera,Matera,Via San Giacomo 20,40.666102,16.612281,MUSMA - Museo Della Scultura Contemporanea (Matera)
4018,NO,NO,Andrea Corrado Trio feat. Sara Rotunno,552,Rosetta Jazz Club,Matera,Matera,Via Gugliemo Marconi 49,40.674467,16.6004679,Rosetta Jazz Club (Matera)
4175,NO,NO,Andrea Valleri. Ermeneutica,590,Teatro Duni,Matera,Matera,Via Roma 10,40.6674885,16.6055998,Teatro Duni (Matera)
2137,NO,SI,Anelante di Flavia Mastrella e Antonio Rezza,477,Parco Del Castello Tramontano,Matera,Matera,Via Castello,40.66385,16.60625,Parco Del Castello Tramontano (Matera)
3638,NO,SI,Angelo di Kobane,456,Palazzo Lanfranchi,Matera,Matera,Piazza Giovanni Pascoli 1,40.663230,16.610342,Palazzo Lanfranchi (Matera)
4167,NO,NO,Angelo Galantini | Fotografia nei Francobolli,237,Galleria Cine Sud,Matera,Matera,Via Antonio Passarelli 29/31,40.6653009,16.6042835,Galleria Cine Sud (Matera)
4165,NO,NO,Angelo Galantini | Saluti da,237,Galleria Cine Sud,Matera,Matera,Via Antonio Passarelli 29/31,40.6653009,16.6042835,Galleria Cine Sud (Matera)
4152,NO,SI,Anima e tradizione,339,Municipio,Barile,Potenza,Corso Vittorio Emanuele 14,40.945968,15.673470,Municipio (Barile)
4581,NO,NO,Anna Lorenzetto,90,Campus Universitario - Unibas,Matera,Matera,Via Lanera 20,40.662055,16.602667,Campus Universitario - Unibas (Matera)
2651,NO,NO,Anteprima 'Matera 2019. Il futuro è qui' - Sky Arte racconta Matera 2019,99,Casa Cava,Matera,Matera,Via San Pietro Barisano 47,40.668458,16.609254,Casa Cava (Matera)
2823,NO,NO,Anteprima Amabili Confini 2019,77,Biblioteca Provinciale T. Stigliani,Matera,Matera,Piazza Vittorio Veneto,40.667170,16.605515,Biblioteca Provinciale T. Stigliani (Matera)
2246,NO,SI,Anteprima di Biennale Democrazia 2019,99,Casa Cava,Matera,Matera,Via San Pietro Barisano 47,40.668458,16.609254,Casa Cava (Matera)
2875,NO,SI,Anteprima Nazionale - The Mars Generation,195,Cinema Il Piccolo,Matera,Matera,Via XX Settembre 14,40.66805,16.60663,Cinema Il Piccolo (Matera)
3779,NO,SI,Anton Vidokle nel giardino di Oliveto Lucano,254,Giardino Di Comunità,Oliveto Lucano,Matera,Via Del Maggio,40.53525,16.18356,Giardino Di Comunità (Oliveto Lucano)
3123,NO,SI,Anton Vidokle nel giardino di Oliveto Lucano,254,Giardino Di Comunità,Oliveto Lucano,Matera,Via Del Maggio,40.53525,16.18356,Giardino Di Comunità (Oliveto Lucano)
3301,NO,NO,Antonella Tamiano presenta a Matera il libro 'Come frammenti di stelle',311,Libreria Di Giulio,Matera,Matera,Via Dante Alighieri 61,40.672017,16.5941357,Libreria Di Giulio (Matera)
2383,NO,NO,Antonio Esposito / Live Unplugged,223,El Tablao,Matera,Matera,Via Cesare Beccaria 10,40.6686586,16.6047758,El Tablao (Matera)
2710,NO,SI,Anzi Capitale delle Stelle,56,Anzi,Anzi,Potenza,Via Fittipaldi 12,40.516087,15.924965,Anzi (Anzi)
2249,NO,NO,Apericena Solidale,537,Prestige Cafè,Matera,Matera,Viale Dei Peucezi 1,40.6797749,16.5883967,Prestige Cafè (Matera)
2052,NO,NO,AperiConcerto - Comunità in festa,122,Casa Netural,Matera,Matera,Via Galileo Galilei 1,40.676612,16.594213,Casa Netural (Matera)
2206,NO,NO,Aperitivo con dj set @1806 Café,37,1806 Café,Matera,Matera,Via Lucana 238,40.6613076,16.61025,1806 Café (Matera)
4178,NO,NO,Aperitivo con il casaro,208,Concept - Lunatic Bistrot,Bernalda,Matera,Via Cairoli 5,40.409626,16.688249,Concept - Lunatic Bistrot (Bernalda)
2588,NO,NO,Aperitivo con Valerie,122,Casa Netural,Matera,Matera,Via Galileo Galilei 1,40.676612,16.594213,Casa Netural (Matera)
2431,NO,SI,Apertura Gardentopia day,435,Open Design School - Casino Padula,Matera,Matera,Via Dei Pesci,40.642424,16.624893,Open Design School - Casino Padula (Matera)
3266,NO,NO,Apertura straordinaria dell'Anfiteatro romano di Venosa,474,Parco Archeologico di Venosa,Venosa,Potenza,Strada Provinciale 18 Ofantina,40.967837,15.826620,Parco Archeologico di Venosa (Venosa)
2762,NO,SI,Apollo Soundtrack,142,Cava Del Sole,Matera,Matera,Strada Statale 7 Via Appia 32,40.681151,16.598275,Cava Del Sole (Matera)
2115,NO,NO,Appello e decisione,456,Palazzo Lanfranchi,Matera,Matera,Piazza Giovanni Pascoli 1,40.663230,16.610342,Palazzo Lanfranchi (Matera)
3865,NO,SI,Aqua,402,Municipio,Savoia Di Lucania,Potenza,Piazza Plebiscito 16,40.569398,15.551466,Municipio (Savoia Di Lucania)
2663,NO,SI,Arboratorio#2,540,Quartiere Serra Venerdì,Matera,Matera,Viale Europa,40.66805,16.59079,Quartiere Serra Venerdì (Matera)
2662,NO,SI,Arboratorio#2: Dejeneur sur l'herbe,540,Quartiere Serra Venerdì,Matera,Matera,Viale Europa,40.66805,16.59079,Quartiere Serra Venerdì (Matera)
3248,NO,NO,ArcheoBookZ,420,Museo Archeologico Nazionale Di Metaponto,Bernalda,Matera,Via Aristea 21,40.3731339,16.806823,Museo Archeologico Nazionale Di Metaponto (Bernalda)
2766,NO,SI,Archeocaccia Revertera,11,Luoghi vari,Garaguso,Matera,,40.548868,16.227689,*Luoghi vari (Garaguso)
1902,NO,NO,Archi Della Busciolano,502,Piazza Giovanni Pascoli,Matera,Matera,Piazza Giovanni Pascoli,40.66320,16.61009,Piazza Giovanni Pascoli (Matera)
2457,NO,SI,Architettura e città antiche – come renderle accessibili,90,Campus Universitario - Unibas,Matera,Matera,Via Lanera 20,40.662055,16.602667,Campus Universitario - Unibas (Matera)
2042,NO,SI,ArCo - Archivio digitale di Comunità,584,Strada Statale 92,Laurenzana,Potenza,Strada Statale 92,40.46092,15.97155,Strada Statale 92 (Laurenzana)
2080,NO,NO,Armonie classiche tra i Sassi,465,Palazzo Viceconte,Matera,Matera,Via San Potito 7,40.666575,16.612216,Palazzo Viceconte (Matera)
3538,NO,NO,Arrampicata Day E Corso Di Approfondimento,482,Parete Da Arrampicata 8017,Balvano,Potenza,Via Città Giardino,40.658758,15.506704,Parete Da Arrampicata 8017 (Balvano)
4287,NO,SI,Arrivederci Vergogna!,57,Archivio Di Stato Di Matera,Matera,Matera,Via Tommaso Stigliani 25,40.668794,16.607977,Archivio Di Stato Di Matera (Matera)
1880,NO,SI,Ars Excavandi,423,Museo Archeologico Nazionale Domenico Ridola,Matera,Matera,Via Domenico Ridola 24,40.663899,16.609270,Museo Archeologico Nazionale Domenico Ridola (Matera)
3694,NO,NO,Art and Disabilities,307,Largo Giacomo Leopardi,Matera,Matera,Largo Giacomo Leopardi,40.6729692,16.5950847,Largo Giacomo Leopardi (Matera)
2198,NO,SI,Art Thinking,273,Hotel Del Campo,Matera,Matera,Via Lucrezio 1,40.681042,16.583872,Hotel Del Campo (Matera)
2196,NO,SI,Art Thinking,273,Hotel Del Campo,Matera,Matera,Via Lucrezio 1,40.681042,16.583872,Hotel Del Campo (Matera)
2600,NO,SI,"Art Thinking, 'Asta e la Vista...'",273,Hotel Del Campo,Matera,Matera,Via Lucrezio 1,40.681042,16.583872,Hotel Del Campo (Matera)
2595,NO,SI,"Art Thinking, 'Il Futurismo, la Società, il Lavoro'",423,Museo Archeologico Nazionale Domenico Ridola,Matera,Matera,Via Domenico Ridola 24,40.663899,16.609270,Museo Archeologico Nazionale Domenico Ridola (Matera)
2596,NO,SI,"Art Thinking, 'Il Passato del Futuro: Le Avanguardie storiche'",423,Museo Archeologico Nazionale Domenico Ridola,Matera,Matera,Via Domenico Ridola 24,40.663899,16.609270,Museo Archeologico Nazionale Domenico Ridola (Matera)
2597,NO,SI,"Art Thinking, 'Le origini del Contemporaneo'",273,Hotel Del Campo,Matera,Matera,Via Lucrezio 1,40.681042,16.583872,Hotel Del Campo (Matera)
2601,NO,SI,"Art Thinking, 'Passaggi e Paesaggi: Arte Pubblica, Qualità Urbana'",273,Hotel Del Campo,Matera,Matera,Via Lucrezio 1,40.681042,16.583872,Hotel Del Campo (Matera)
2199,NO,SI,Art Walking,271,Hotel Casa Diva,Matera,Matera,Vico Giumella 3,40.664488,16.609469,Hotel Casa Diva (Matera)
2197,NO,SI,Art Walking,280,Hotel Sextantio Le Grotte Della Civita,Matera,Matera,Via Civita 28,40.6677,16.6118,Hotel Sextantio Le Grotte Della Civita (Matera)
2195,NO,SI,Art Walking,273,Hotel Del Campo,Matera,Matera,Via Lucrezio 1,40.681042,16.583872,Hotel Del Campo (Matera)
2591,NO,SI,"Art Walking, ‘Acqua, Arte, Vita’",272,Hotel Corte San Pietro,Matera,Matera,Via Bruno Buozzi 97,40.663959,16.611157,Hotel Corte San Pietro (Matera)
2593,NO,SI,"Art Walking, ‘Architettura intelligente’",504,Piazza Giovanni XXIII,Matera,Matera,Piazza Giovanni XXIII,40.6721,16.5954,Piazza Giovanni XXIII (Matera)
2586,NO,SI,"Art Walking, ‘Arte Tempo e Decoro’",274,Hotel Le Dimore Dell'idris,Matera,Matera,Via Madonna Dell'idris 16,40.664073,16.611633,Hotel Le Dimore Dell'idris (Matera)
2590,NO,SI,"Art Walking, ‘Arte, Politica, Comunità’",273,Hotel Del Campo,Matera,Matera,Via Lucrezio 1,40.681042,16.583872,Hotel Del Campo (Matera)
2592,NO,SI,"Art Walking, ‘La recente storia dei Sassi’",274,Hotel Le Dimore Dell'idris,Matera,Matera,Via Madonna Dell'idris 16,40.664073,16.611633,Hotel Le Dimore Dell'idris (Matera)
2589,NO,SI,"Art Walking, ‘Politica e Geometria’",276,Hotel Locanda Di San Martino,Matera,Matera,Via Fiorentini 71,40.666704,16.608269,Hotel Locanda Di San Martino (Matera)
2594,NO,SI,"Art Walking, ‘Vicinati contemporanei’",535,Poste Italiane,Matera,Matera,Viale Francesco Saverio Nitti 8,40.666,16.5929,Poste Italiane (Matera)
2673,NO,NO,Arte & Artigianato della Città di Fermo,109,Casa di Ortega - Museo delle Arti applicate,Matera,Matera,Via San Nicola Del Sole,40.668441,16.610989,Casa di Ortega - Museo delle Arti applicate (Matera)
2328,NO,NO,Arte e Artigianato nel Museo Josè Ortega,109,Casa di Ortega - Museo delle Arti applicate,Matera,Matera,Via San Nicola Del Sole,40.668441,16.610989,Casa di Ortega - Museo delle Arti applicate (Matera)
2330,NO,NO,Arte e Atigianato nel Museo Ortega,109,Casa di Ortega - Museo delle Arti applicate,Matera,Matera,Via San Nicola Del Sole,40.668441,16.610989,Casa di Ortega - Museo delle Arti applicate (Matera)
4735,NO,SI,Arte e scienza on the road,436,Open Dome,Matera,Matera,Piazza San Francesco 12,40.66523,16.60865,Open Dome (Matera)
2458,NO,SI,Arti performative e disabilità nel Regno Unito e Italia,90,Campus Universitario - Unibas,Matera,Matera,Via Lanera 20,40.662055,16.602667,Campus Universitario - Unibas (Matera)
3685,NO,SI,Artificial Things - StopGap Dance Company,560,Sala Pier Paolo Pasolini - Il Circo,Matera,Matera,Via Gaio Sallustio Crispo,40.68113,16.57707,Sala Pier Paolo Pasolini - Il Circo (Matera)
4414,NO,NO,Artigianato Artistico Abruzzese - Work Shop,238,Galleria CNA Basilicata,Matera,Matera,Piazza Duomo,40.6665099,16.6109633,Galleria CNA Basilicata (Matera)
2311,NO,SI,Artisti. Dall’opera alla persona,99,Casa Cava,Matera,Matera,Via San Pietro Barisano 47,40.668458,16.609254,Casa Cava (Matera)
3444,NO,NO,Ascoltare un vedere : percorsi di arte e fede,156,Chiesa del Cristo Flagellato (Ex Ospedale San Rocco),Matera,Matera,Via San Biagio 31,40.667515,16.607794,Chiesa del Cristo Flagellato (Ex Ospedale San Rocco) (Matera)
3843,NO,NO,Aspettando Babylonica..,132,Castello Di Lagopesole,Avigliano,Potenza,,40.807279,15.733108,Castello Di Lagopesole (Avigliano)
3149,NO,SI,Aspettando l'alba con Pitagora,473,Parco Archeologico Dell'area Urbana Di Metaponto,Bernalda,Matera,Parco Archeologico Dell'area Urbana Di Metaponto,40.383458,16.824093,Parco Archeologico Dell'area Urbana Di Metaponto (Bernalda)
2167,NO,NO,Assemblea dei Lucani nel Mondo 2019,156,Chiesa del Cristo Flagellato (Ex Ospedale San Rocco),Matera,Matera,Via San Biagio 31,40.667515,16.607794,Chiesa del Cristo Flagellato (Ex Ospedale San Rocco) (Matera)
4156,NO,SI,Atelier delle verdure nel giardino di Maschito,250,Giardino Di Comunità,Maschito,Potenza,Via Estramurale Forenza,40.91061,15.83080,Giardino Di Comunità (Maschito)
3777,NO,SI,Atelier delle verdure nel giardino di Maschito,250,Giardino Di Comunità,Maschito,Potenza,Via Estramurale Forenza,40.91061,15.83080,Giardino Di Comunità (Maschito)
3922,NO,SI,Atelier delle verdure nel giardino di Maschito,250,Giardino Di Comunità,Maschito,Potenza,Via Estramurale Forenza,40.91061,15.83080,Giardino Di Comunità (Maschito)
4257,NO,SI,Atelier delle verdure nel giardino di Vietri di Potenza,264,Giardino Di Comunità,Vietri Di Potenza,Potenza,Via Dante Alighieri,40.60184,15.50939,Giardino Di Comunità (Vietri Di Potenza)
3778,NO,SI,Atelier delle verdure nel giardino di Vietri di Potenza,264,Giardino Di Comunità,Vietri Di Potenza,Potenza,Via Dante Alighieri,40.60184,15.50939,Giardino Di Comunità (Vietri Di Potenza)
4626,NO,SI,Atella Capitale per un giorno,336,Municipio,Atella,Potenza,Piazza Giacomo Matteotti,40.877643,15.652771,Municipio (Atella)
1708,NO,SI,Atlante Delle Emozioni Delle Città: I. La Secretissima Camera De Lo Core,77,Biblioteca Provinciale T. Stigliani,Matera,Matera,Piazza Vittorio Veneto,40.667170,16.605515,Biblioteca Provinciale T. Stigliani (Matera)
4147,NO,SI,Atlante Delle Emozioni Delle Città: I. La Secretissima Camera De Lo Core - Apertura Straordinaria,77,Biblioteca Provinciale T. Stigliani,Matera,Matera,Piazza Vittorio Veneto,40.667170,16.605515,Biblioteca Provinciale T. Stigliani (Matera)
4328,NO,SI,Atlante Delle Emozioni Delle Città: I. La Secretissima Camera De Lo Core - Apertura Straordinaria,77,Biblioteca Provinciale T. Stigliani,Matera,Matera,Piazza Vittorio Veneto,40.667170,16.605515,Biblioteca Provinciale T. Stigliani (Matera)
3959,NO,SI,Atlante Delle Emozioni Delle Città: I. La Secretissima Camera De Lo Core - Apertura Straordinaria,77,Biblioteca Provinciale T. Stigliani,Matera,Matera,Piazza Vittorio Veneto,40.667170,16.605515,Biblioteca Provinciale T. Stigliani (Matera)
3956,NO,SI,Atlante Delle Emozioni Delle Città: I. La Secretissima Camera De Lo Core - Apertura Straordinaria,77,Biblioteca Provinciale T. Stigliani,Matera,Matera,Piazza Vittorio Veneto,40.667170,16.605515,Biblioteca Provinciale T. Stigliani (Matera)
4330,NO,SI,Atlante Delle Emozioni Delle Città: I. La Secretissima Camera De Lo Core - Apertura Straordinaria,77,Biblioteca Provinciale T. Stigliani,Matera,Matera,Piazza Vittorio Veneto,40.667170,16.605515,Biblioteca Provinciale T. Stigliani (Matera)
4329,NO,SI,Atlante Delle Emozioni Delle Città: I. La Secretissima Camera De Lo Core - Apertura Straordinaria,77,Biblioteca Provinciale T. Stigliani,Matera,Matera,Piazza Vittorio Veneto,40.667170,16.605515,Biblioteca Provinciale T. Stigliani (Matera)
4327,NO,SI,Atlante Delle Emozioni Delle Città: I. La Secretissima Camera De Lo Core - Apertura Straordinaria,77,Biblioteca Provinciale T. Stigliani,Matera,Matera,Piazza Vittorio Veneto,40.667170,16.605515,Biblioteca Provinciale T. Stigliani (Matera)
1700,NO,SI,Atlante Delle Emozioni Delle Città: I. La Secretissima Camera De Lo Core - Inaugurazione,77,Biblioteca Provinciale T. Stigliani,Matera,Matera,Piazza Vittorio Veneto,40.667170,16.605515,Biblioteca Provinciale T. Stigliani (Matera)
3531,NO,NO,Attilio Troiano,456,Palazzo Lanfranchi,Matera,Matera,Piazza Giovanni Pascoli 1,40.663230,16.610342,Palazzo Lanfranchi (Matera)
2260,NO,NO,Attivazione Reiki I-II e III Livello - Adolfo Soho Brunelli,51,Al Jalil Yoga,Matera,Matera,Via San Pietro Caveoso 6,40.66441,16.60963,Al Jalil Yoga (Matera)
4461,NO,NO,Attivazione Reiki I-II e III Livello - Adolfo Soho Brunelli,51,Al Jalil Yoga,Matera,Matera,Via San Pietro Caveoso 6,40.66441,16.60963,Al Jalil Yoga (Matera)
3348,NO,NO,Audizione compagnia Asd Oltredanza,65,ASD Oltredanza,Matera,Matera,Via Pentasugli18,40.6695,16.6024,ASD Oltredanza (Matera)
2500,NO,NO,Autonomia regionale e unità del Paese. Ciclo di conferenze sul futuro del Mezzogiorno,156,Chiesa del Cristo Flagellato (Ex Ospedale San Rocco),Matera,Matera,Via San Biagio 31,40.667515,16.607794,Chiesa del Cristo Flagellato (Ex Ospedale San Rocco) (Matera)
2721,NO,NO,"Autonomia regionale, conferenza di Adriano Giannola, Presidente Svimez",88,Camera di Commercio Industria Artigianato e Agricoltura,Matera,Matera,Via Lucana 82,40.6665686,16.604241,Camera di Commercio Industria Artigianato e Agricoltura (Matera)
1695,NO,SI,Ave Gratia Plena,464,Palazzo Vescovile,Tricarico,Matera,Piazza Monsignor Raffaello Delle Nocche,40.62414,16.14384,Palazzo Vescovile (Tricarico)
2294,NO,NO,Azione di Guerriglia Marketing: Song & Drum Circle,14,Luoghi vari,Matera,Matera,,40.666667,16.6,*Luoghi vari (Matera)
4322,NO,SI,B-side,97,Casa Buffalmacco,Montescaglioso,Matera,Via San Francesco D’assisi 35,40.5549,16.66892,Casa Buffalmacco (Montescaglioso)
4440,NO,SI,B-side,97,Casa Buffalmacco,Montescaglioso,Matera,Via San Francesco D’assisi 35,40.5549,16.66892,Casa Buffalmacco (Montescaglioso)
4441,NO,SI,B-side,97,Casa Buffalmacco,Montescaglioso,Matera,Via San Francesco D’assisi 35,40.5549,16.66892,Casa Buffalmacco (Montescaglioso)
3474,NO,NO,B#SIDE WAR 5 /,291,Ipogei Di Piazza San Francesco / Infopoint Matera 2019,Matera,Matera,Piazza San Francesco,40.6653788,16.6087177,Ipogei Di Piazza San Francesco / Infopoint Matera 2019 (Matera)
3043,NO,NO,Babilonia - Loredana Bertè cover band,223,El Tablao,Matera,Matera,Via Cesare Beccaria 10,40.6686586,16.6047758,El Tablao (Matera)
3841,NO,NO,Babylonica,132,Castello Di Lagopesole,Avigliano,Potenza,,40.807279,15.733108,Castello Di Lagopesole (Avigliano)
4446,NO,SI,Backstage,112,Casa E. Centonze,Miglionico,Matera,Vicolo Kennedy 29,40.56607,16.502,Casa E. Centonze (Miglionico)
4336,NO,SI,Backstage,112,Casa E. Centonze,Miglionico,Matera,Vicolo Kennedy 29,40.56607,16.502,Casa E. Centonze (Miglionico)
2621,NO,SI,Bag da banner di recupero,435,Open Design School - Casino Padula,Matera,Matera,Via Dei Pesci,40.642424,16.624893,Open Design School - Casino Padula (Matera)
3854,NO,SI,Ballo Comune,592,Teatro Ludovico Quaroni,Matera,Matera,Piazza Monte Grappa,40.66077,16.53582,Teatro Ludovico Quaroni (Matera)
3607,NO,NO,Banda Giovanile della ANBIMA Lazio,456,Palazzo Lanfranchi,Matera,Matera,Piazza Giovanni Pascoli 1,40.663230,16.610342,Palazzo Lanfranchi (Matera)
3331,NO,NO,Banda Senza Problemi,422,Museo Archeologico Nazionale Di Venosa,Venosa,Potenza,Piazza Umberto I 49,40.961153,15.818553,Museo Archeologico Nazionale Di Venosa (Venosa)
2795,NO,NO,Barbie Time,588,Teatro,Matera,Matera,Via XX Settembre 14,40.6679190,16.6062209,Teatro (Matera)
4229,NO,NO,Bari Brasil Film Fest 2019 a Matera,195,Cinema Il Piccolo,Matera,Matera,Via XX Settembre 14,40.66805,16.60663,Cinema Il Piccolo (Matera)
3072,NO,SI,Basilicata Creativa,31,Luoghi vari,Trecchina,Potenza,,40.026002,15.775836,*Luoghi vari (Trecchina)
3007,NO,SI,Basilicata Creativa,31,Luoghi vari,Trecchina,Potenza,,40.026002,15.775836,*Luoghi vari (Trecchina)
2914,NO,SI,Basilicata Creativa,568,Santuario Di Santa Maria Regina Di Anglona,Tursi,Matera,Piazza Santa Maria D'Anglona 4,40.2443,16.55752,Santuario Di Santa Maria Regina Di Anglona (Tursi)
2185,NO,SI,Basilicata Creativa,2,Luoghi vari,Abriola,Potenza,,40.5078822,15.8137603,*Luoghi vari (Abriola)
3159,NO,NO,Basilicata Guida agli oggetti della Tradizione,423,Museo Archeologico Nazionale Domenico Ridola,Matera,Matera,Via Domenico Ridola 24,40.663899,16.609270,Museo Archeologico Nazionale Domenico Ridola (Matera)
1660,NO,SI,Basilicata Jazz Orchestra,198,Cineteatro San Mauro,Lavello,Potenza,Via Vittorio Alfieri 24,41.04637,15.79046,Cineteatro San Mauro (Lavello)
2054,NO,NO,Bats in Matera returns at 1806 Café,37,1806 Café,Matera,Matera,Via Lucana 238,40.6613076,16.61025,1806 Café (Matera)
2338,NO,NO,Bats In Matera Sunday Special: Carnivale,37,1806 Café,Matera,Matera,Via Lucana 238,40.6613076,16.61025,1806 Café (Matera)
2245,NO,NO,Bats In Matera: We Are The Eighties!,37,1806 Café,Matera,Matera,Via Lucana 238,40.6613076,16.61025,1806 Café (Matera)
2140,NO,NO,Battere E Levare@1806Café,37,1806 Café,Matera,Matera,Via Lucana 238,40.6613076,16.61025,1806 Café (Matera)
4835,NO,NO,Beat Souls in concerto,223,El Tablao,Matera,Matera,Via Cesare Beccaria 10,40.6686586,16.6047758,El Tablao (Matera)
4648,NO,NO,Beat Souls in concerto,223,El Tablao,Matera,Matera,Via Cesare Beccaria 10,40.6686586,16.6047758,El Tablao (Matera)
2532,NO,NO,Beatles. 14 dicembre 1963,237,Galleria Cine Sud,Matera,Matera,Via Antonio Passarelli 29/31,40.6653009,16.6042835,Galleria Cine Sud (Matera)
2990,NO,NO,Beautiful PLAY - U2 & Coldplay,223,El Tablao,Matera,Matera,Via Cesare Beccaria 10,40.6686586,16.6047758,El Tablao (Matera)
4821,NO,NO,BeerFestival Matera,284,Il Chiostro Delle Cererie Hotel,Matera,Matera,Via Cererie 16,40.674546,16.606223,Il Chiostro Delle Cererie Hotel (Matera)
3797,NO,SI,Bellarte,340,Municipio,Bella,Potenza,Corso Italia 1,40.760460,15.539493,Municipio (Bella)
3464,NO,NO,Bentornato Presidente,297,Jazzo Gattini - Centro Visite Parco Della Murgia Materana,Matera,Matera,Contrada Murgia Timone,40.672428,16.629824,Jazzo Gattini - Centro Visite Parco Della Murgia Materana (Matera)
4044,NO,NO,Best Regards,64,Arti Visive Gallery,Matera,Matera,Via Delle Beccherie 41,40.6658511,16.6079531,Arti Visive Gallery (Matera)
4365,NO,SI,BetweENers,512,Piazza San Francesco,Matera,Matera,Piazza San Francesco,40.665178,16.609166,Piazza San Francesco (Matera)
2843,NO,NO,Beyond the screen,156,Chiesa del Cristo Flagellato (Ex Ospedale San Rocco),Matera,Matera,Via San Biagio 31,40.667515,16.607794,Chiesa del Cristo Flagellato (Ex Ospedale San Rocco) (Matera)
2482,NO,NO,Bibliomater - letture per bambini,122,Casa Netural,Matera,Matera,Via Galileo Galilei 1,40.676612,16.594213,Casa Netural (Matera)
4181,NO,NO,Big Tony R -DJ Set,208,Concept - Lunatic Bistrot,Bernalda,Matera,Via Cairoli 5,40.409626,16.688249,Concept - Lunatic Bistrot (Bernalda)
2989,NO,NO,BigDog Four Live in concerto,223,El Tablao,Matera,Matera,Via Cesare Beccaria 10,40.6686586,16.6047758,El Tablao (Matera)
3350,NO,NO,Black in Two - Tributo alle voci black,223,El Tablao,Matera,Matera,Via Cesare Beccaria 10,40.6686586,16.6047758,El Tablao (Matera)
3360,NO,NO,Blade Runner – The Final Cut,456,Palazzo Lanfranchi,Matera,Matera,Piazza Giovanni Pascoli 1,40.663230,16.610342,Palazzo Lanfranchi (Matera)
1964,NO,SI,Blind Sensorium,228,Ex Scuola Media A. Volta,Matera,Matera,Via Lucana 157,40.663675,16.608219,Ex Scuola Media A. Volta (Matera)
1964,NO,SI,Blind Sensorium,423,Museo Archeologico Nazionale Domenico Ridola,Matera,Matera,Via Domenico Ridola 24,40.663899,16.609270,Museo Archeologico Nazionale Domenico Ridola (Matera)
2465,NO,SI,Block Lab,152,Centro Sociale Alberti Marone,Viggiano,Potenza,Via Parzanese 15,40.3403,15.9003,Centro Sociale Alberti Marone (Viggiano)
2396,NO,SI,Block Lab,35,Luoghi vari,Viggiano,Potenza,,40.3417,15.9019,*Luoghi vari (Viggiano)
2448,NO,NO,Bloody Sabbath 'Black Sabbath Tribute band' Live @ Cotta 39,216,Cotta 39,Matera,Matera,Via Casalnuovo 39,40.6622447,16.6106572,Cotta 39 (Matera)
2714,NO,NO,Bluse and more live@1806 Café,37,1806 Café,Matera,Matera,Via Lucana 238,40.6613076,16.61025,1806 Café (Matera)
3484,NO,NO,Bohemian Rhapsody,156,Chiesa del Cristo Flagellato (Ex Ospedale San Rocco),Matera,Matera,Via San Biagio 31,40.667515,16.607794,Chiesa del Cristo Flagellato (Ex Ospedale San Rocco) (Matera)
3423,NO,SI,Borg Art Fest,371,Municipio,Montalbano Jonico,Matera,Viale Sacro Cuore Di Gesù 11,40.321512,16.570616,Municipio (Montalbano Jonico)
2964,NO,NO,Borgo inVita,80,Borgo Pianello,Muro Lucano,Potenza,Borgo Pianello,40.7527,15.4890,Borgo Pianello (Muro Lucano)
4231,NO,SI,Boris Christoff – La voce che prega Dio per la Bulgaria (2014),195,Cinema Il Piccolo,Matera,Matera,Via XX Settembre 14,40.66805,16.60663,Cinema Il Piccolo (Matera)
2906,NO,SI,Bosco Magnano e il Torrente Peschiera,330,Mula+,Latronico,Potenza,Vico Stabilimento,40.089328,15.981049,Mula+ (Latronico)
2911,NO,SI,Bosco Pantano e la Magna Grecia,431,Oasi Del Bosco Pantano Di Policoro,Policoro,Matera,Località Idrovora Policoro,40.1583,16.6875,Oasi Del Bosco Pantano Di Policoro (Policoro)
2947,NO,SI,Bread for Earth,331,Mulino Alvino,Matera,Matera,Via San Vito 28,40.677322,16.599103,Mulino Alvino (Matera)
2088,NO,NO,Broken Frame U2 Tribute Band,216,Cotta 39,Matera,Matera,Via Casalnuovo 39,40.6622447,16.6106572,Cotta 39 (Matera)
2530,NO,NO,Broken Frames 'Coldplay Tribute Band' Live @ Cotta 39,216,Cotta 39,Matera,Matera,Via Casalnuovo 39,40.6622447,16.6106572,Cotta 39 (Matera)
2321,NO,NO,Burning,104,Casa D'Imperio Galleria Studio,Matera,Matera,Piazza Vittorio Veneto 34,40.666780,16.606682,Casa D'Imperio Galleria Studio (Matera)
2063,NO,NO,Bus da Potenza per inaugurazione Matera 2019,14,Luoghi vari,Matera,Matera,,40.666667,16.6,*Luoghi vari (Matera)
3039,NO,NO,C'era una volta...il gioco,573,Sede Asd Matera Sport Tradizionali,Pisticci,Matera,Via Cagliari 1,40.361972,16.685321,Sede Asd Matera Sport Tradizionali (Pisticci)
4345,NO,SI,Caccia Leggendaria - I fantasmi di Matera,435,Open Design School - Casino Padula,Matera,Matera,Via Dei Pesci,40.642424,16.624893,Open Design School - Casino Padula (Matera)
4346,NO,SI,Caccia Leggendaria - I fantasmi di Matera,512,Piazza San Francesco,Matera,Matera,Piazza San Francesco,40.665178,16.609166,Piazza San Francesco (Matera)
3637,NO,SI,Callas Forever,456,Palazzo Lanfranchi,Matera,Matera,Piazza Giovanni Pascoli 1,40.663230,16.610342,Palazzo Lanfranchi (Matera)
3595,NO,SI,Calvello - Matera andata e ritorno,343,Municipio,Calvello,Potenza,Via Roma 38,40.474901,15.846251,Municipio (Calvello)
3500,NO,NO,Calvello - Matera andata e ritorno,321,Mediateca / Palazzo dell'Annunziata,Matera,Matera,Piazza Vittorio Veneto,40.66693,16.60566,Mediateca / Palazzo dell'Annunziata (Matera)
3594,NO,SI,Calvello - Matera andata e ritorno,321,Mediateca / Palazzo dell'Annunziata,Matera,Matera,Piazza Vittorio Veneto,40.66693,16.60566,Mediateca / Palazzo dell'Annunziata (Matera)
3500,NO,NO,Calvello - Matera andata e ritorno,156,Chiesa del Cristo Flagellato (Ex Ospedale San Rocco),Matera,Matera,Via San Biagio 31,40.667515,16.607794,Chiesa del Cristo Flagellato (Ex Ospedale San Rocco) (Matera)
2689,NO,SI,"Camera a Sud, ballate, uomini, bestie e poveri cristi da un meridione immaginario",69,Auditorium R. Gervasio,Matera,Matera,Piazza Del Sedile,40.665332,16.609669,Auditorium R. Gervasio (Matera)
3733,NO,SI,Cameristi della Scala – Le otto stagioni,142,Cava Del Sole,Matera,Matera,Strada Statale 7 Via Appia 32,40.681151,16.598275,Cava Del Sole (Matera)
3732,NO,SI,Cameristi della Scala – Omaggio a Vivaldi,157,Chiesa del Purgatorio,Matera,Matera,Via Domenico Ridola,40.664397,16.608882,Chiesa del Purgatorio (Matera)
3358,NO,SI,Cammino d'autore: Il cuore verso il cielo,483,Piano Ruggio,Viggianello,Potenza,Viggianello,40.02137,16.13623,Piano Ruggio (Viggianello)
3094,NO,SI,Cammino d'autore: Il cuore verso il cielo,396,Municipio,San Severino Lucano,Potenza,Via San Vincenzo,40.021803,16.136763,Municipio (San Severino Lucano)
2074,NO,NO,Campionati Italiani di Tennistavolo Paralimpico FISDIR,444,Palasassi,Matera,Matera,Viale Nazioni Unite,40.6660948,16.5955494,Palasassi (Matera)
1668,NO,SI,Cani e Gatti,162,Chiesa di Madre Della Chiesa,Matera,Matera,Via Dei Dauni 20,40.6833,16.5832,Chiesa di Madre Della Chiesa (Matera)
3201,NO,SI,Cani e Gatti,162,Chiesa di Madre Della Chiesa,Matera,Matera,Via Dei Dauni 20,40.6833,16.5832,Chiesa di Madre Della Chiesa (Matera)
2549,NO,NO,Canti Popolari della Murgia,313,Libreria The Sassi Bookstore,Matera,Matera,Via Lucana 184,40.663085,16.6084328,Libreria The Sassi Bookstore (Matera)
4521,NO,SI,Cantico dei Cantici,589,Teatro Comunale Guerieri,Matera,Matera,Piazza Vittorio Veneto 23,40.666918,16.605920,Teatro Comunale Guerieri (Matera)
1620,NO,SI,Cantico dei Cantici,162,Chiesa di Madre Della Chiesa,Matera,Matera,Via Dei Dauni 20,40.6833,16.5832,Chiesa di Madre Della Chiesa (Matera)
1639,NO,SI,Cantico Delle Creature,44,Abbazia di San Michele Arcangelo,Rionero In Vulture,Potenza,Badia San Michele,40.9353219,15.6164583,Abbazia di San Michele Arcangelo (Rionero In Vulture)
2180,NO,SI,Cantiere Dante,591,Teatro Francesco Stabile,Potenza,Potenza,Piazza Mario Pagano,40.638272,15.802006,Teatro Francesco Stabile (Potenza)
2425,NO,SI,Cantiere Dante,314,Liceo Classico Duni - Presso Uffici Della Regione Basilicata,Matera,Matera,Via Castello,40.6611,16.5981,Liceo Classico Duni - Presso Uffici Della Regione Basilicata (Matera)
2171,NO,SI,Cantiere Dante,90,Campus Universitario - Unibas,Matera,Matera,Via Lanera 20,40.662055,16.602667,Campus Universitario - Unibas (Matera)
1606,NO,SI,Cantieri Di Speranza,73,Basilica Pontificia Cattedrale di Maria Santissima della Bruna e Sant'Eustachio,Matera,Matera,Piazza Duomo 7,40.666798,16.610987,Basilica Pontificia Cattedrale di Maria Santissima della Bruna e Sant'Eustachio (Matera)
2009,NO,NO,Caos Apparente,156,Chiesa del Cristo Flagellato (Ex Ospedale San Rocco),Matera,Matera,Via San Biagio 31,40.667515,16.607794,Chiesa del Cristo Flagellato (Ex Ospedale San Rocco) (Matera)
4490,NO,NO,capitali coraggiose,423,Museo Archeologico Nazionale Domenico Ridola,Matera,Matera,Via Domenico Ridola 24,40.663899,16.609270,Museo Archeologico Nazionale Domenico Ridola (Matera)
2969,NO,NO,Capitani Coraggiosi,452,Palazzo Della Provincia,Matera,Matera,Via Domenico Ridola 60,40.662108,16.610203,Palazzo Della Provincia (Matera)
4849,NO,NO,Capolavori in rilievo,417,Museo Archeologico Nazionale Del Melfese 'Massimo Pallottino',Melfi,Potenza,Via Normanni,40.99836,15.65284,Museo Archeologico Nazionale Del Melfese 'Massimo Pallottino' (Melfi)
2149,NO,NO,Capoluoghi d'Italia.. dedicato a Matera,91,Caritas Diocesana Matera-Irsina,Matera,Matera,Via Cappuccini 15,40.65356,16.61844,Caritas Diocesana Matera-Irsina (Matera)
2661,NO,NO,Caravaggio. Non a Scuola' Lezione Spettacolo di Mimmo Centonze su Caravaggio. Per le scuole di Matera,69,Auditorium R. Gervasio,Matera,Matera,Piazza Del Sedile,40.665332,16.609669,Auditorium R. Gervasio (Matera)
4527,NO,SI,"Carlo Levi e la crisi della civiltà, prima giornata",456,Palazzo Lanfranchi,Matera,Matera,Piazza Giovanni Pascoli 1,40.663230,16.610342,Palazzo Lanfranchi (Matera)
4530,NO,SI,"Carlo Levi e la crisi della civiltà, seconda giornata",456,Palazzo Lanfranchi,Matera,Matera,Piazza Giovanni Pascoli 1,40.663230,16.610342,Palazzo Lanfranchi (Matera)
3737,NO,NO,Carlo Levi: L'Arte Della Politica - Disegni (1947-48),456,Palazzo Lanfranchi,Matera,Matera,Piazza Giovanni Pascoli 1,40.663230,16.610342,Palazzo Lanfranchi (Matera)
879,NO,NO,Carnevale di Satriano di Lucania,26,Luoghi vari,Satriano Di Lucania,Potenza,"Boschetta Spera, Piazza Abbamonte, Corso Trieste",40.540929,15.639842,*Luoghi vari (Satriano Di Lucania)
4063,NO,NO,Carte de Visite,237,Galleria Cine Sud,Matera,Matera,Via Antonio Passarelli 29/31,40.6653009,16.6042835,Galleria Cine Sud (Matera)
4596,NO,NO,Castelfranci incontra Matera,292,Ipogei Palazzo Motta,Matera,Matera,Via San Bartolomeo 46,40.6641258,16.6075577,Ipogei Palazzo Motta (Matera)
3001,NO,SI,Castelluccesi Illustri,6,Luoghi vari,Castelluccio Inferiore,Potenza,,40.003568,15.980760,*Luoghi vari (Castelluccio Inferiore)
2096,NO,NO,Castle Beer Festival,61,Area Fiera Di Lagopesole,Avigliano,Potenza,Zona Paip Miracolo,40.797953,15.799448,Area Fiera Di Lagopesole (Avigliano)
3489,NO,SI,Cavalleria Rusticana,516,Piazza San Pietro Caveoso,Matera,Matera,Piazza San Pietro Caveoso,40.664606,16.611965,Piazza San Pietro Caveoso (Matera)
2841,NO,NO,Cello In The Universe,330,Mula+,Latronico,Potenza,Vico Stabilimento,40.089328,15.981049,Mula+ (Latronico)
2129,NO,NO,Cena con delitto,550,Ristorante La Corte Dei Basiliani,Policoro,Matera,Via Castello,40.2162551,16.6791898,Ristorante La Corte Dei Basiliani (Policoro)
3249,NO,SI,Cena d'Estate,610,Viale J. F. Kennedy,Montescaglioso,Matera,Viale J. F. Kennedy,40.54639,16.66708,Viale J. F. Kennedy (Montescaglioso)
2869,NO,NO,Cena tipica italiana!,41,A Casa Di Piero,Matera,Matera,Via Agna 75100 Matera,40.6447787,16.6201713,A Casa Di Piero (Matera)
4722,NO,NO,Cenone di San Silvestro al San Barbato Resort,561,San Barbato Resort Spa & Golf,Lavello,Potenza,S.S. 93 Km 56300,41.03509819,15.7705307,San Barbato Resort Spa & Golf (Lavello)
4683,NO,SI,Ceramiche,579,Spazio Dell'Angelo,Matera,Matera,Via Sant'angelo 68,40.665851,16.612349,Spazio Dell'Angelo (Matera)
4684,NO,NO,Cerimonia Premio Unpli Basilicata 2019,331,Mulino Alvino,Matera,Matera,Via San Vito 28,40.677322,16.599103,Mulino Alvino (Matera)
4513,NO,SI,"Challenges (vision, autorialità, contesto, DNA)",90,Campus Universitario - Unibas,Matera,Matera,Via Lanera 20,40.662055,16.602667,Campus Universitario - Unibas (Matera)
2831,NO,NO,"Che fai, ridi?'",223,El Tablao,Matera,Matera,Via Cesare Beccaria 10,40.6686586,16.6047758,El Tablao (Matera)
2496,NO,NO,Cheek To Cheek,223,El Tablao,Matera,Matera,Via Cesare Beccaria 10,40.6686586,16.6047758,El Tablao (Matera)
3193,NO,SI,"Chi semina t'accoglie - cittadinanza attiva, condivisione e coesione sociale",485,Piazza Aldo Moro,Genzano Di Lucania,Potenza,Piazza Aldo Moro,40.84665,16.02832,Piazza Aldo Moro (Genzano Di Lucania)
2669,NO,NO,Chiamami Col Tuo Nome,195,Cinema Il Piccolo,Matera,Matera,Via XX Settembre 14,40.66805,16.60663,Cinema Il Piccolo (Matera)
3834,NO,SI,Chiamata pubblica per attori dilettanti,203,Complesso Del Casale,Matera,Matera,Via Casale 63,40.668838,16.610581,Complesso Del Casale (Matera)
3784,NO,SI,Chiamata pubblica per Trenodia,539,Quartiere Piccianello,Matera,Matera,Quartiere Piccianello,40.67468,16.6014,Quartiere Piccianello (Matera)
2808,NO,SI,"Chiedi chi era Gaetano, chiedi cosa era il Grande Torino",156,Chiesa del Cristo Flagellato (Ex Ospedale San Rocco),Matera,Matera,Via San Biagio 31,40.667515,16.607794,Chiesa del Cristo Flagellato (Ex Ospedale San Rocco) (Matera)
2927,NO,NO,Chiedilo Agli Alberi,551,Ristorante San Pietro Barisano,Matera,Matera,Rione San Biagio 54,40.6685709,16.6092119,Ristorante San Pietro Barisano (Matera)
3222,NO,SI,Child's Portrait di Silvia Rampelli,477,Parco Del Castello Tramontano,Matera,Matera,Via Castello,40.66385,16.60625,Parco Del Castello Tramontano (Matera)
3223,NO,SI,Child's Portrait di Silvia Rampelli,477,Parco Del Castello Tramontano,Matera,Matera,Via Castello,40.66385,16.60625,Parco Del Castello Tramontano (Matera)
4389,NO,SI,Chiusi in un cerchio,116,Casa Lamacchia,Matera,Matera,Via Monviso 1,40.66113,16.53427,Casa Lamacchia (Matera)
4451,NO,SI,Chiusi in un cerchio,116,Casa Lamacchia,Matera,Matera,Via Monviso 1,40.66113,16.53427,Casa Lamacchia (Matera)
4452,NO,SI,Chiusi in un cerchio,116,Casa Lamacchia,Matera,Matera,Via Monviso 1,40.66113,16.53427,Casa Lamacchia (Matera)
4466,NO,NO,Cianfrusaglie Live@1806 Café,37,1806 Café,Matera,Matera,Via Lucana 238,40.6613076,16.61025,1806 Café (Matera)
2867,NO,NO,Cianfrusaglie Live@1806 Café,37,1806 Café,Matera,Matera,Via Lucana 238,40.6613076,16.61025,1806 Café (Matera)
2684,NO,NO,Ciclo d'incontri 'Dove abiti? Le nostre strade ...la nostra storia',315,Liceo Scientifico Statale 'Dante Alighieri',Matera,Matera,Viale Nazioni Unite 2,40.664740,16.597841,Liceo Scientifico Statale 'Dante Alighieri' (Matera)
3290,NO,SI,Cielo Capovolto,234,Fondazione Southeritage,Matera,Matera,Via San Potito 7,40.666607,16.612400,Fondazione Southeritage (Matera)
2633,NO,NO,Cilento la terra dei centenari,156,Chiesa del Cristo Flagellato (Ex Ospedale San Rocco),Matera,Matera,Via San Biagio 31,40.667515,16.607794,Chiesa del Cristo Flagellato (Ex Ospedale San Rocco) (Matera)
2635,NO,NO,Cilento Terra di Centenari,156,Chiesa del Cristo Flagellato (Ex Ospedale San Rocco),Matera,Matera,Via San Biagio 31,40.667515,16.607794,Chiesa del Cristo Flagellato (Ex Ospedale San Rocco) (Matera)
2613,NO,NO,Cilento Terra di Centenari,156,Chiesa del Cristo Flagellato (Ex Ospedale San Rocco),Matera,Matera,Via San Biagio 31,40.667515,16.607794,Chiesa del Cristo Flagellato (Ex Ospedale San Rocco) (Matera)
2194,NO,SI,CineCirco - Proiezione del docufilm Moira Orfei. Amore e fiori,477,Parco Del Castello Tramontano,Matera,Matera,Via Castello,40.66385,16.60625,Parco Del Castello Tramontano (Matera)
2209,NO,SI,"CineCirco: conferenza 'Il clown. Un sorriso tra pista, palco e grande schermo'",477,Parco Del Castello Tramontano,Matera,Matera,Via Castello,40.66385,16.60625,Parco Del Castello Tramontano (Matera)
2210,NO,SI,CineCirco: Nuovo Cinema Circo,477,Parco Del Castello Tramontano,Matera,Matera,Via Castello,40.66385,16.60625,Parco Del Castello Tramontano (Matera)
2208,NO,SI,CineCirco: proiezione del docufilm L'Equilibrio del cucchiaino,477,Parco Del Castello Tramontano,Matera,Matera,Via Castello,40.66385,16.60625,Parco Del Castello Tramontano (Matera)
3397,NO,SI,Cineforum in Periferia,611,Vico Giordano Bruno,Matera,Matera,Vico Giordano Bruno 4,40.67676,16.59476,Vico Giordano Bruno (Matera)
3425,NO,SI,Cineforum in Periferia,611,Vico Giordano Bruno,Matera,Matera,Vico Giordano Bruno 4,40.67676,16.59476,Vico Giordano Bruno (Matera)
3426,NO,SI,Cineforum in Periferia,611,Vico Giordano Bruno,Matera,Matera,Vico Giordano Bruno 4,40.67676,16.59476,Vico Giordano Bruno (Matera)
3427,NO,SI,Cineforum in Periferia,611,Vico Giordano Bruno,Matera,Matera,Vico Giordano Bruno 4,40.67676,16.59476,Vico Giordano Bruno (Matera)
3682,NO,SI,Cineforum in Periferia,611,Vico Giordano Bruno,Matera,Matera,Vico Giordano Bruno 4,40.67676,16.59476,Vico Giordano Bruno (Matera)
4103,NO,SI,Cinema in tavola,233,Fondazione Sassi,Matera,Matera,Via San Giovanni Vecchio 24,40.668090,16.609282,Fondazione Sassi (Matera)
3821,NO,NO,"Cinema, Volume 1° | Rosetta Jazz Club",552,Rosetta Jazz Club,Matera,Matera,Via Gugliemo Marconi 49,40.674467,16.6004679,Rosetta Jazz Club (Matera)
2728,NO,NO,Cip...Proviamo Con La Classe,202,Circolo Velico Policoro,Policoro,Matera,Via Lido,40.182518,16.710916,Circolo Velico Policoro (Policoro)
3307,NO,NO,Città senza Tempo di Beppe Bolchi,237,Galleria Cine Sud,Matera,Matera,Via Antonio Passarelli 29/31,40.6653009,16.6042835,Galleria Cine Sud (Matera)
2538,NO,NO,City Shuttle,237,Galleria Cine Sud,Matera,Matera,Via Antonio Passarelli 29/31,40.6653009,16.6042835,Galleria Cine Sud (Matera)
3929,NO,NO,Cityscapes 2 di Giovanni Spinazzola,285,Il Mondo Di Federico II,Avigliano,Potenza,Via Umberto I,40.807341,15.732799,Il Mondo Di Federico II (Avigliano)
4349,NO,SI,Clean game,435,Open Design School - Casino Padula,Matera,Matera,Via Dei Pesci,40.642424,16.624893,Open Design School - Casino Padula (Matera)
4350,NO,SI,Clean game,478,Parco Di Serra Venerdì - Piazza Colonnata,Matera,Matera,Parco Di Serra Venerdì - Piazza Colonnata,40.66956,16.59092,Parco Di Serra Venerdì - Piazza Colonnata (Matera)
4177,NO,SI,Closing | 1/16' Origin,193,Chiesa Rupestre di Santa Maria De Armenis,Matera,Matera,Sasso Caveoso,40.6626052,16.6111184,Chiesa Rupestre di Santa Maria De Armenis (Matera)
3164,NO,SI,Closing Party,540,Quartiere Serra Venerdì,Matera,Matera,Viale Europa,40.66805,16.59079,Quartiere Serra Venerdì (Matera)
3376,NO,SI,CO_Opera,203,Complesso Del Casale,Matera,Matera,Via Casale 63,40.668838,16.610581,Complesso Del Casale (Matera)
3168,NO,SI,CO_Opera,203,Complesso Del Casale,Matera,Matera,Via Casale 63,40.668838,16.610581,Complesso Del Casale (Matera)
2183,NO,SI,CO_Opera,203,Complesso Del Casale,Matera,Matera,Via Casale 63,40.668838,16.610581,Complesso Del Casale (Matera)
3718,NO,NO,Coba,69,Auditorium R. Gervasio,Matera,Matera,Piazza Del Sedile,40.665332,16.609669,Auditorium R. Gervasio (Matera)
3490,NO,NO,Cocciante Stories:Le Mille Note Dell'Anima,331,Mulino Alvino,Matera,Matera,Via San Vito 28,40.677322,16.599103,Mulino Alvino (Matera)
3232,NO,SI,Colobraro - Scrigno di Rituali e Conoscenze- Percorso emozionale,213,Convento Francescano,Colobraro,Matera,Largo Convento,40.187776,16.423373,Convento Francescano (Colobraro)
4361,NO,NO,Colonna sonora,417,Museo Archeologico Nazionale Del Melfese 'Massimo Pallottino',Melfi,Potenza,Via Normanni,40.99836,15.65284,Museo Archeologico Nazionale Del Melfese 'Massimo Pallottino' (Melfi)
3860,NO,NO,Colorful,589,Teatro Comunale Guerieri,Matera,Matera,Piazza Vittorio Veneto 23,40.666918,16.605920,Teatro Comunale Guerieri (Matera)
3192,NO,SI,Coltiviamo la solidarietà: sostenere la convivenza e la relazione interpersonale in un contesto comune,485,Piazza Aldo Moro,Genzano Di Lucania,Potenza,Piazza Aldo Moro,40.84665,16.02832,Piazza Aldo Moro (Genzano Di Lucania)
4672,NO,NO,Come Funziona La Nascita,51,Al Jalil Yoga,Matera,Matera,Via San Pietro Caveoso 6,40.66441,16.60963,Al Jalil Yoga (Matera)
1995,NO,SI,Compagnie Compagnie,62,Arena Sinni,Senise,Potenza,Strada Comunale Vicinale Codicino,40.14709,16.31703,Arena Sinni (Senise)
4713,NO,SI,CompostiAMO Matera,437,Open Lab Matera,Matera,Matera,Piazza Cesare Firrao 24,40.669071,16.6028873,Open Lab Matera (Matera)
4717,NO,SI,CompostiAMO Matera,437,Open Lab Matera,Matera,Matera,Piazza Cesare Firrao 24,40.669071,16.6028873,Open Lab Matera (Matera)
2513,NO,SI,Computed Art,447,Palazzo Acito,Matera,Matera,Recinto II Fiorentini,40.666778,16.608843,Palazzo Acito (Matera)
4519,NO,SI,"Con lo sguardo 'di dentro': Matera 2019, capitale europea della cultura. Prima giornata",589,Teatro Comunale Guerieri,Matera,Matera,Piazza Vittorio Veneto 23,40.666918,16.605920,Teatro Comunale Guerieri (Matera)
4523,NO,SI,"Con lo sguardo 'di dentro': Matera 2019, capitale europea della cultura. Seconda giornata",589,Teatro Comunale Guerieri,Matera,Matera,Piazza Vittorio Veneto 23,40.666918,16.605920,Teatro Comunale Guerieri (Matera)
4526,NO,SI,"Con lo sguardo 'di dentro': Matera 2019, capitale europea della cultura. Terza Giornata",589,Teatro Comunale Guerieri,Matera,Matera,Piazza Vittorio Veneto 23,40.666918,16.605920,Teatro Comunale Guerieri (Matera)
2743,NO,SI,"Concerti ed esibizioni musicali, la poesia di Sinisgalli",226,Ex Convento San Domenico,Montemurro,Potenza,Via Rapocci Carmine,40.297822,15.993272,Ex Convento San Domenico (Montemurro)
3758,NO,SI,Concerto - Conduce Francesco Antonioni,69,Auditorium R. Gervasio,Matera,Matera,Piazza Del Sedile,40.665332,16.609669,Auditorium R. Gervasio (Matera)
3771,NO,SI,Concerto - Conduce Francesco Antonioni,69,Auditorium R. Gervasio,Matera,Matera,Piazza Del Sedile,40.665332,16.609669,Auditorium R. Gervasio (Matera)
3017,NO,NO,Concerto 'Note Di Fine Anno',315,Liceo Scientifico Statale 'Dante Alighieri',Matera,Matera,Viale Nazioni Unite 2,40.664740,16.597841,Liceo Scientifico Statale 'Dante Alighieri' (Matera)
1680,NO,NO,Concerto Banda Nazionale dei Vigili del Fuoco,512,Piazza San Francesco,Matera,Matera,Piazza San Francesco,40.665178,16.609166,Piazza San Francesco (Matera)
4736,NO,SI,Concerto Banda Rulli Frulli,512,Piazza San Francesco,Matera,Matera,Piazza San Francesco,40.665178,16.609166,Piazza San Francesco (Matera)
2049,NO,SI,Concerto Cammino Confraternite,512,Piazza San Francesco,Matera,Matera,Piazza San Francesco,40.665178,16.609166,Piazza San Francesco (Matera)
3199,NO,SI,Concerto Cammino Confraternite,494,Piazza Duomo,Matera,Matera,Piazza Duomo,40.66663,16.61118,Piazza Duomo (Matera)
4827,NO,SI,Concerto dal balcone,523,Piazza Vittorio Veneto,Matera,Matera,Piazza Vittorio Veneto,40.666916,16.606227,Piazza Vittorio Veneto (Matera)
2055,NO,NO,Concerto dell'Orchestra Giovanile di Laureana di Borello (RC),165,Chiesa di San Francesco Da Paola,Matera,Matera,Via XX Settembre 13,40.667838,16.605748,Chiesa di San Francesco Da Paola (Matera)
1642,NO,SI,Concerto della corale Mysticus-concentus,140,Concattedrale di San Michele Arcangelo (Rapolla),Rapolla,Potenza,Via Regina Elena 35,40.97750,15.67729,Concattedrale di San Michele Arcangelo (Rapolla)
2574,NO,NO,Concerto della Passione (Matera),157,Chiesa del Purgatorio,Matera,Matera,Via Domenico Ridola,40.664397,16.608882,Chiesa del Purgatorio (Matera)
2068,NO,NO,Concerto della Speranza,446,Palauditorium Karol Wojtyla,Montescaglioso,Matera,Via Bubbico,40.5498271,16.662542799999983,Palauditorium Karol Wojtyla (Montescaglioso)
1818,NO,SI,Concerto di musica classica - Fondazione Orchestra Lucana,136,Cattedrale - Parrocchia S.Maria Assunta,Tricarico,Matera,Via Vittorio Veneto 33,40.62377,16.14387,Cattedrale - Parrocchia S.Maria Assunta (Tricarico)
2132,NO,NO,Concerto di Tatiana Tarsia,229,Fahrenheit451 Caffé Letterario,Policoro,Matera,Piazza Eraclea,40.211269,16.676913,Fahrenheit451 Caffé Letterario (Policoro)
3973,NO,SI,Concerto Ensemble Krom,179,Chiesa di Santa Chiara,Matera,Matera,Via Domenico Ridola 20,40.664081,16.609121,Chiesa di Santa Chiara (Matera)
3973,NO,SI,Concerto Ensemble Krom,173,Chiesa di San Pietro Caveoso,Matera,Matera,Piazza San Pietro Caveoso,40.66441,16.61258,Chiesa di San Pietro Caveoso (Matera)
1715,NO,SI,Concerto Ensemble Krom,173,Chiesa di San Pietro Caveoso,Matera,Matera,Piazza San Pietro Caveoso,40.66441,16.61258,Chiesa di San Pietro Caveoso (Matera)
2547,NO,NO,Concerto Finale dei Contrabbassisti della Masterclass,556,Sala Concerti De La Scuola Delle Arti,Matera,Matera,Vico XX Settembre 2,40.66827,16.60618,Sala Concerti De La Scuola Delle Arti (Matera)
2921,NO,NO,Concerto Finalisti Premio Lams-Matera 2019,423,Museo Archeologico Nazionale Domenico Ridola,Matera,Matera,Via Domenico Ridola 24,40.663899,16.609270,Museo Archeologico Nazionale Domenico Ridola (Matera)
1721,NO,SI,Concerto Gen Verde,174,Chiesa di San Pio X,Matera,Matera,Via Francesco Petrarca 3,40.6721097,16.595141,Chiesa di San Pio X (Matera)
1721,NO,SI,Concerto Gen Verde,517,Piazza San Pio X,Matera,Matera,Via Francesco Petrarca,40.672281,16.595658,Piazza San Pio X (Matera)
4053,NO,NO,Concerto Gen Verde - From The Inside Outside,504,Piazza Giovanni XXIII,Matera,Matera,Piazza Giovanni XXIII,40.6721,16.5954,Piazza Giovanni XXIII (Matera)
1661,NO,SI,Concerto Gospel,150,Centro Sociale,Rionero In Vulture,Potenza,Via Fiera,40.929060,15.676303,Centro Sociale (Rionero In Vulture)
3450,NO,NO,Concerto Grosso per i New Trolls,456,Palazzo Lanfranchi,Matera,Matera,Piazza Giovanni Pascoli 1,40.663230,16.610342,Palazzo Lanfranchi (Matera)
3453,NO,NO,Concerto Grosso per i New Trolls,456,Palazzo Lanfranchi,Matera,Matera,Piazza Giovanni Pascoli 1,40.663230,16.610342,Palazzo Lanfranchi (Matera)
2836,NO,NO,Concerto in Omaggio a Matera-Basilicata 2019,139,Cattedrale di San Gerardo,Potenza,Potenza,Via Vincenzo Scafarelli 6,40.64036,15.80636,Cattedrale di San Gerardo (Potenza)
2838,NO,NO,Concerto in Omaggio a Matera-Basilicata 2019,73,Basilica Pontificia Cattedrale di Maria Santissima della Bruna e Sant'Eustachio,Matera,Matera,Piazza Duomo 7,40.666798,16.610987,Basilica Pontificia Cattedrale di Maria Santissima della Bruna e Sant'Eustachio (Matera)
2837,NO,NO,Concerto in Omaggio a Matera-Basilicata 2019,141,Cattedrale di Santa Maria Assunta,Melfi,Potenza,Piazza Duomo,40.996803,15.658243,Cattedrale di Santa Maria Assunta (Melfi)
2253,NO,NO,Concerto Meditativo Al Suono Del Flauto Bansuri,51,Al Jalil Yoga,Matera,Matera,Via San Pietro Caveoso 6,40.66441,16.60963,Al Jalil Yoga (Matera)
1626,NO,SI,Concerto Musicale Gospel,207,Concattedrale Sant'andrea Apostolo,Venosa,Potenza,Largo Vescovado,40.96496,15.82270,Concattedrale Sant'andrea Apostolo (Venosa)
1605,NO,SI,Concerto Oratorio Sacro,73,Basilica Pontificia Cattedrale di Maria Santissima della Bruna e Sant'Eustachio,Matera,Matera,Piazza Duomo 7,40.666798,16.610987,Basilica Pontificia Cattedrale di Maria Santissima della Bruna e Sant'Eustachio (Matera)
4059,NO,SI,Concerto Oratorio Sacro,73,Basilica Pontificia Cattedrale di Maria Santissima della Bruna e Sant'Eustachio,Matera,Matera,Piazza Duomo 7,40.666798,16.610987,Basilica Pontificia Cattedrale di Maria Santissima della Bruna e Sant'Eustachio (Matera)
3109,NO,NO,Concerto Orchestra di fiati,165,Chiesa di San Francesco Da Paola,Matera,Matera,Via XX Settembre 13,40.667838,16.605748,Chiesa di San Francesco Da Paola (Matera)
2775,NO,SI,Concerto per Salisburgo,69,Auditorium R. Gervasio,Matera,Matera,Piazza Del Sedile,40.665332,16.609669,Auditorium R. Gervasio (Matera)
3748,NO,SI,Concerto Puro Sentimento - Teresa De Sio,512,Piazza San Francesco,Matera,Matera,Piazza San Francesco,40.665178,16.609166,Piazza San Francesco (Matera)
4207,NO,NO,Concerto sinfonico d'autunno - 5 ottobre Orchestra di Matera e della Basilicata,589,Teatro Comunale Guerieri,Matera,Matera,Piazza Vittorio Veneto 23,40.666918,16.605920,Teatro Comunale Guerieri (Matera)
4464,NO,NO,Concorso Corale Antonio Guanti,69,Auditorium R. Gervasio,Matera,Matera,Piazza Del Sedile,40.665332,16.609669,Auditorium R. Gervasio (Matera)
3241,NO,NO,Concorso nazionale di Poesia,132,Castello Di Lagopesole,Avigliano,Potenza,,40.807279,15.733108,Castello Di Lagopesole (Avigliano)
4037,NO,SI,Condanna e Passione di Cristo,516,Piazza San Pietro Caveoso,Matera,Matera,Piazza San Pietro Caveoso,40.664606,16.611965,Piazza San Pietro Caveoso (Matera)
4528,NO,NO,Conferenza 'Ma le radiazioni fanno davvero paura?',278,Hotel Palace,Matera,Matera,Piazza Bianco 1,40.663386,16.597812,Hotel Palace (Matera)
2962,NO,NO,"Conferenza di Marco Esposito, giornalista de 'Il Mattino'",88,Camera di Commercio Industria Artigianato e Agricoltura,Matera,Matera,Via Lucana 82,40.6665686,16.604241,Camera di Commercio Industria Artigianato e Agricoltura (Matera)
2524,NO,NO,Confindustria Per Matera 2019 L’Open Future Delle Imprese Italiane,291,Ipogei Di Piazza San Francesco / Infopoint Matera 2019,Matera,Matera,Piazza San Francesco,40.6653788,16.6087177,Ipogei Di Piazza San Francesco / Infopoint Matera 2019 (Matera)
3406,NO,NO,Confindustria Per Matera 2019 L’Open Future Delle Imprese Italiane,291,Ipogei Di Piazza San Francesco / Infopoint Matera 2019,Matera,Matera,Piazza San Francesco,40.6653788,16.6087177,Ipogei Di Piazza San Francesco / Infopoint Matera 2019 (Matera)
3999,NO,NO,Confindustria Per Matera 2019 L’Open Future Delle Imprese Italiane,291,Ipogei Di Piazza San Francesco / Infopoint Matera 2019,Matera,Matera,Piazza San Francesco,40.6653788,16.6087177,Ipogei Di Piazza San Francesco / Infopoint Matera 2019 (Matera)
3798,NO,NO,Confindustria Per Matera 2019 L’Open Future Delle Imprese Italiane,291,Ipogei Di Piazza San Francesco / Infopoint Matera 2019,Matera,Matera,Piazza San Francesco,40.6653788,16.6087177,Ipogei Di Piazza San Francesco / Infopoint Matera 2019 (Matera)
3505,NO,NO,Confindustria Per Matera 2019 L’Open Future Delle Imprese Italiane,291,Ipogei Di Piazza San Francesco / Infopoint Matera 2019,Matera,Matera,Piazza San Francesco,40.6653788,16.6087177,Ipogei Di Piazza San Francesco / Infopoint Matera 2019 (Matera)
3229,NO,NO,Confindustria Per Matera 2019 L’Open Future Delle Imprese Italiane,291,Ipogei Di Piazza San Francesco / Infopoint Matera 2019,Matera,Matera,Piazza San Francesco,40.6653788,16.6087177,Ipogei Di Piazza San Francesco / Infopoint Matera 2019 (Matera)
4039,NO,NO,Confindustria Per Matera 2019 L’Open Future Delle Imprese Italiane,291,Ipogei Di Piazza San Francesco / Infopoint Matera 2019,Matera,Matera,Piazza San Francesco,40.6653788,16.6087177,Ipogei Di Piazza San Francesco / Infopoint Matera 2019 (Matera)
4591,NO,NO,Confindustria Per Matera 2019 L’Open Future Delle Imprese Italiane,291,Ipogei Di Piazza San Francesco / Infopoint Matera 2019,Matera,Matera,Piazza San Francesco,40.6653788,16.6087177,Ipogei Di Piazza San Francesco / Infopoint Matera 2019 (Matera)
2952,NO,NO,Confindustria Per Matera 2019 L’Open Future Delle Imprese Italiane,291,Ipogei Di Piazza San Francesco / Infopoint Matera 2019,Matera,Matera,Piazza San Francesco,40.6653788,16.6087177,Ipogei Di Piazza San Francesco / Infopoint Matera 2019 (Matera)
2695,NO,NO,Confindustria Per Matera 2019 L’Open Future Delle Imprese Italiane,291,Ipogei Di Piazza San Francesco / Infopoint Matera 2019,Matera,Matera,Piazza San Francesco,40.6653788,16.6087177,Ipogei Di Piazza San Francesco / Infopoint Matera 2019 (Matera)
3535,NO,NO,Confindustria Per Matera 2019 L’Open Future Delle Imprese Italiane,291,Ipogei Di Piazza San Francesco / Infopoint Matera 2019,Matera,Matera,Piazza San Francesco,40.6653788,16.6087177,Ipogei Di Piazza San Francesco / Infopoint Matera 2019 (Matera)
3367,NO,NO,Confindustria Per Matera 2019 L’Open Future Delle Imprese Italiane,291,Ipogei Di Piazza San Francesco / Infopoint Matera 2019,Matera,Matera,Piazza San Francesco,40.6653788,16.6087177,Ipogei Di Piazza San Francesco / Infopoint Matera 2019 (Matera)
3661,NO,NO,Confindustria Per Matera 2019 L’Open Future Delle Imprese Italiane,291,Ipogei Di Piazza San Francesco / Infopoint Matera 2019,Matera,Matera,Piazza San Francesco,40.6653788,16.6087177,Ipogei Di Piazza San Francesco / Infopoint Matera 2019 (Matera)
2738,NO,NO,Confindustria Per Matera 2019 L’Open Future Delle Imprese Italiane,291,Ipogei Di Piazza San Francesco / Infopoint Matera 2019,Matera,Matera,Piazza San Francesco,40.6653788,16.6087177,Ipogei Di Piazza San Francesco / Infopoint Matera 2019 (Matera)
3015,NO,NO,Confindustria Per Matera 2019 L’Open Future Delle Imprese Italiane,291,Ipogei Di Piazza San Francesco / Infopoint Matera 2019,Matera,Matera,Piazza San Francesco,40.6653788,16.6087177,Ipogei Di Piazza San Francesco / Infopoint Matera 2019 (Matera)
2546,NO,NO,Confindustria Per Matera 2019 L’Open Future Delle Imprese Italiane,291,Ipogei Di Piazza San Francesco / Infopoint Matera 2019,Matera,Matera,Piazza San Francesco,40.6653788,16.6087177,Ipogei Di Piazza San Francesco / Infopoint Matera 2019 (Matera)
2824,NO,NO,Confindustria Per Matera 2019 L’Open Future Delle Imprese Italiane,291,Ipogei Di Piazza San Francesco / Infopoint Matera 2019,Matera,Matera,Piazza San Francesco,40.6653788,16.6087177,Ipogei Di Piazza San Francesco / Infopoint Matera 2019 (Matera)
3738,NO,NO,Confindustria Per Matera 2019 L’Open Future Delle Imprese Italiane,291,Ipogei Di Piazza San Francesco / Infopoint Matera 2019,Matera,Matera,Piazza San Francesco,40.6653788,16.6087177,Ipogei Di Piazza San Francesco / Infopoint Matera 2019 (Matera)
2892,NO,SI,Confusione,10,Luoghi vari,Ferrandina,Matera,,40.49318,16.45684,*Luoghi vari (Ferrandina)
2680,NO,NO,Congresso Lions Clubs International,523,Piazza Vittorio Veneto,Matera,Matera,Piazza Vittorio Veneto,40.666916,16.606227,Piazza Vittorio Veneto (Matera)
2236,NO,NO,Conoscere per Competere,99,Casa Cava,Matera,Matera,Via San Pietro Barisano 47,40.668458,16.609254,Casa Cava (Matera)
2163,NO,NO,"Contemporanea. Pittori, incisori e scultori lucani. Generazione 1930-1960'",156,Chiesa del Cristo Flagellato (Ex Ospedale San Rocco),Matera,Matera,Via San Biagio 31,40.667515,16.607794,Chiesa del Cristo Flagellato (Ex Ospedale San Rocco) (Matera)
4106,NO,NO,Contemporaneo contemporaneamente al Musma,109,Casa di Ortega - Museo delle Arti applicate,Matera,Matera,Via San Nicola Del Sole,40.668441,16.610989,Casa di Ortega - Museo delle Arti applicate (Matera)
3696,NO,NO,Contrabbasso E Piano,163,Chiesa di San Francesco,San Giorgio Lucano,Matera,Piazza San Rocco,40.1147687!4,16.3900593,Chiesa di San Francesco (San Giorgio Lucano)
2764,NO,NO,Contrada Zero,532,Podus - Mangio Dunque Sono,Grottole,Matera,Contrada Bosco Coste,40.621176,16.410949,Podus - Mangio Dunque Sono (Grottole)
2466,NO,NO,Contrada Zero live@1806 Café,37,1806 Café,Matera,Matera,Via Lucana 238,40.6613076,16.61025,1806 Café (Matera)
3311,NO,NO,Contraffazioni confortanti di Angelo Galantini,237,Galleria Cine Sud,Matera,Matera,Via Antonio Passarelli 29/31,40.6653009,16.6042835,Galleria Cine Sud (Matera)
4342,NO,SI,Contro l'isolamento,275,Hotel Le Monacelle,Matera,Matera,Via Riscatto 15,40.667523,16.611559,Hotel Le Monacelle (Matera)
2008,NO,NO,Contro La Guerra,275,Hotel Le Monacelle,Matera,Matera,Via Riscatto 15,40.667523,16.611559,Hotel Le Monacelle (Matera)
4719,NO,NO,Contro Vento,64,Arti Visive Gallery,Matera,Matera,Via Delle Beccherie 41,40.6658511,16.6079531,Arti Visive Gallery (Matera)
3551,NO,NO,Convegno,199,Cineteatro Selene,Rotonda,Potenza,Via Don Saverio Laurita,39.953357,16.037031,Cineteatro Selene (Rotonda)
4509,NO,NO,Convegno Europeo Progetto CinEd,456,Palazzo Lanfranchi,Matera,Matera,Piazza Giovanni Pascoli 1,40.663230,16.610342,Palazzo Lanfranchi (Matera)
3087,NO,NO,Convegno Pinus Halepensis Monumentale,567,Santuario Di San Donato,Ripacandida,Potenza,Piazzale Di San Donato,40.91328,15.728298,Santuario Di San Donato (Ripacandida)
2785,NO,NO,Convention del Mezzogiorno 2019 - Confartigianato Imprese,331,Mulino Alvino,Matera,Matera,Via San Vito 28,40.677322,16.599103,Mulino Alvino (Matera)
2445,NO,SI,Coro di voci,267,Giardino Spighe Bianche,Matera,Matera,Via Lazazzera,40.66830,16.59469,Giardino Spighe Bianche (Matera)
2478,NO,SI,Corpo Cittadino,275,Hotel Le Monacelle,Matera,Matera,Via Riscatto 15,40.667523,16.611559,Hotel Le Monacelle (Matera)
2057,NO,NO,Corpo Cittadino,303,Laboratorio Di Restauro Della Soprintendenza Della Basilicata,Matera,Matera,Via Della Tecnica,40.6722792,16.573921,Laboratorio Di Restauro Della Soprintendenza Della Basilicata (Matera)
3598,NO,NO,Corso base di Birdwatching nelle Gole del Platano,268,Gole Del Platano,Balvano,Potenza,,40.663908,15.503587,Gole Del Platano (Balvano)
4233,NO,NO,Corso di cartapesta I Ed,439,Opera Don Bonifacio Azione Verde,Matera,Matera,Via Piemonte 3,40.6745443,16.6007852,Opera Don Bonifacio Azione Verde (Matera)
2411,NO,NO,Corso Di Disegno E Pittura Per Bambini E Ragazzi - Ii Edizione,439,Opera Don Bonifacio Azione Verde,Matera,Matera,Via Piemonte 3,40.6745443,16.6007852,Opera Don Bonifacio Azione Verde (Matera)
2481,NO,NO,Corso di empowerment femminile a Matera,122,Casa Netural,Matera,Matera,Via Galileo Galilei 1,40.676612,16.594213,Casa Netural (Matera)
2464,NO,NO,Corso di marketing per fotografi (ed altra gente tosta),122,Casa Netural,Matera,Matera,Via Galileo Galilei 1,40.676612,16.594213,Casa Netural (Matera)
4387,NO,NO,Corso Formazione Insegnanti Yoga Alliance - Iscrizioni aperte,51,Al Jalil Yoga,Matera,Matera,Via San Pietro Caveoso 6,40.66441,16.60963,Al Jalil Yoga (Matera)
2346,NO,NO,Corso Raja Siddhi Yoga - Alliance International,51,Al Jalil Yoga,Matera,Matera,Via San Pietro Caveoso 6,40.66441,16.60963,Al Jalil Yoga (Matera)
2567,NO,NO,Cosa resterà..,223,El Tablao,Matera,Matera,Via Cesare Beccaria 10,40.6686586,16.6047758,El Tablao (Matera)
4303,NO,SI,Cosaltro Esperimenti,594,Teatromobile,Sarconi,Potenza,Piazza Municipio,40.247245,15.888872,Teatromobile (Sarconi)
4394,NO,SI,Cosaltro Esperimenti,594,Teatromobile,Sarconi,Potenza,Piazza Municipio,40.247245,15.888872,Teatromobile (Sarconi)
2021,NO,NO,Coscienza Dell'Uomo,237,Galleria Cine Sud,Matera,Matera,Via Antonio Passarelli 29/31,40.6653009,16.6042835,Galleria Cine Sud (Matera)
2021,NO,NO,Coscienza Dell'Uomo,236,Galleria Arti Visive,Matera,Matera,Via Beccherie 41,40.665847,16.607956,Galleria Arti Visive (Matera)
2021,NO,NO,Coscienza Dell'Uomo,156,Chiesa del Cristo Flagellato (Ex Ospedale San Rocco),Matera,Matera,Via San Biagio 31,40.667515,16.607794,Chiesa del Cristo Flagellato (Ex Ospedale San Rocco) (Matera)
2021,NO,NO,Coscienza Dell'Uomo,275,Hotel Le Monacelle,Matera,Matera,Via Riscatto 15,40.667523,16.611559,Hotel Le Monacelle (Matera)
3306,NO,NO,Così il tempo presente di Altin Manaf e Andreas Ikonomu,239,Galleria Ex La Scaletta,Matera,Matera,Via Lucana 9,40.6680806,16.6032868,Galleria Ex La Scaletta (Matera)
4220,NO,NO,Cosimo Maragno Trio Meets Fabrizio Bosso,113,Casa Elizia,Pisticci,Matera,"Via Ciro Menotti, 36",40.390737,16.5,Casa Elizia (Pisticci)
2954,NO,NO,Cosmic Fest - Il Festival Internazionale Veg E Olistico,43,Abbazia di San Michele Arcangelo,Montescaglioso,Matera,Piazza Del Popolo 14,40.558247,16.664195,Abbazia di San Michele Arcangelo (Montescaglioso)
2859,NO,NO,Cosmogonie pittoriche,104,Casa D'Imperio Galleria Studio,Matera,Matera,Piazza Vittorio Veneto 34,40.666780,16.606682,Casa D'Imperio Galleria Studio (Matera)
3753,NO,SI,"Costellazione, Il Cielo in una Stanza",579,Spazio Dell'Angelo,Matera,Matera,Via Sant'angelo 68,40.665851,16.612349,Spazio Dell'Angelo (Matera)
3382,NO,SI,"Costellazione, Il Cielo in una Stanza",579,Spazio Dell'Angelo,Matera,Matera,Via Sant'angelo 68,40.665851,16.612349,Spazio Dell'Angelo (Matera)
4776,NO,SI,"Costellazione, Il Cielo in una Stanza",579,Spazio Dell'Angelo,Matera,Matera,Via Sant'angelo 68,40.665851,16.612349,Spazio Dell'Angelo (Matera)
3383,NO,SI,"Costellazione, Il Cielo in una Stanza",579,Spazio Dell'Angelo,Matera,Matera,Via Sant'angelo 68,40.665851,16.612349,Spazio Dell'Angelo (Matera)
2255,NO,NO,Costellazioni Familiari,51,Al Jalil Yoga,Matera,Matera,Via San Pietro Caveoso 6,40.66441,16.60963,Al Jalil Yoga (Matera)
2558,NO,NO,Costellazioni Familiari - Incontro,51,Al Jalil Yoga,Matera,Matera,Via San Pietro Caveoso 6,40.66441,16.60963,Al Jalil Yoga (Matera)
2800,NO,NO,Costellazioni Familiari - Incontro,51,Al Jalil Yoga,Matera,Matera,Via San Pietro Caveoso 6,40.66441,16.60963,Al Jalil Yoga (Matera)
4379,NO,NO,Costellazioni Familiari - Incontro,51,Al Jalil Yoga,Matera,Matera,Via San Pietro Caveoso 6,40.66441,16.60963,Al Jalil Yoga (Matera)
4674,NO,NO,Costellazioni Familiari - Incontro,51,Al Jalil Yoga,Matera,Matera,Via San Pietro Caveoso 6,40.66441,16.60963,Al Jalil Yoga (Matera)
2485,NO,NO,Costellazioni Sistemiche Evolutive - Incontro,51,Al Jalil Yoga,Matera,Matera,Via San Pietro Caveoso 6,40.66441,16.60963,Al Jalil Yoga (Matera)
3645,NO,SI,"Costellazioni. Pronti, Partenza... Spazio!",456,Palazzo Lanfranchi,Matera,Matera,Piazza Giovanni Pascoli 1,40.663230,16.610342,Palazzo Lanfranchi (Matera)
2620,NO,SI,Costruire con il legno,435,Open Design School - Casino Padula,Matera,Matera,Via Dei Pesci,40.642424,16.624893,Open Design School - Casino Padula (Matera)
3830,NO,SI,Costruire con il legno,435,Open Design School - Casino Padula,Matera,Matera,Via Dei Pesci,40.642424,16.624893,Open Design School - Casino Padula (Matera)
3439,NO,NO,Costruzione strumento musicale indigeno Taiwanese,275,Hotel Le Monacelle,Matera,Matera,Via Riscatto 15,40.667523,16.611559,Hotel Le Monacelle (Matera)
2363,NO,SI,Crazy Dream Circus,477,Parco Del Castello Tramontano,Matera,Matera,Via Castello,40.66385,16.60625,Parco Del Castello Tramontano (Matera)
2285,NO,NO,Crea il supereroe che è in te,58,Arcolaio,Matera,Matera,Via Don Giovanni Minzoni 26,40.6665957,16.6032434,Arcolaio (Matera)
4076,NO,SI,Creativi All'Opera | Decoriamo Le Tazze Di Matera2019,290,Infopoint Matera 2019,Matera,Matera,Via Lucana 125/127,40.65651,16.61608,Infopoint Matera 2019 (Matera)
4078,NO,SI,Creativi All'Opera | Decoriamo Le Tazze Di Matera2019 | Laboratorio Per Famiglie,290,Infopoint Matera 2019,Matera,Matera,Via Lucana 125/127,40.65651,16.61608,Infopoint Matera 2019 (Matera)
2623,NO,SI,Creazione di un archivio collettivo,143,Cava Paradiso,Matera,Matera,Contrada La Palomba,40.680587,16.605294,Cava Paradiso (Matera)
1691,NO,SI,Crescere Insieme In Parrocchia,177,Chiesa di Sant'Antonio,Matera,Matera,Via Carlo Levi 2,40.66001,16.60056,Chiesa di Sant'Antonio (Matera)
1694,NO,SI,Crescere Insieme In Parrocchia,166,Chiesa di San Giacomo,Matera,Matera,Via Benedetto Croce 12,40.67434,16.58312,Chiesa di San Giacomo (Matera)
3200,NO,SI,Crescere Insieme In Parrocchia,166,Chiesa di San Giacomo,Matera,Matera,Via Benedetto Croce 12,40.67434,16.58312,Chiesa di San Giacomo (Matera)
1666,NO,SI,Crescere Insieme In Parrocchia,162,Chiesa di Madre Della Chiesa,Matera,Matera,Via Dei Dauni 20,40.6833,16.5832,Chiesa di Madre Della Chiesa (Matera)
4033,NO,SI,Crocifissione di Cristo,74,Belvedere Di Murgia Timone,Matera,Matera,Contrada Murgia Timone,40.66386,16.61768,Belvedere Di Murgia Timone (Matera)
4598,NO,SI,Cronache del doposisma,423,Museo Archeologico Nazionale Domenico Ridola,Matera,Matera,Via Domenico Ridola 24,40.663899,16.609270,Museo Archeologico Nazionale Domenico Ridola (Matera)
2495,NO,NO,Crossroad - Bon Jovi - Tribute Band,223,El Tablao,Matera,Matera,Via Cesare Beccaria 10,40.6686586,16.6047758,El Tablao (Matera)
2403,NO,SI,CTRL-X/CTRL-V,435,Open Design School - Casino Padula,Matera,Matera,Via Dei Pesci,40.642424,16.624893,Open Design School - Casino Padula (Matera)
3879,NO,SI,Cucire in versi: raccontare i luoghi attraverso la poesia,441,Oratorio Parrocchiale,Noepoli,Potenza,Via Conche 16,40.0870,16.3295,Oratorio Parrocchiale (Noepoli)
2887,NO,SI,Culti - Divina Bantia E Le Tabulae Bantinae,427,Museo Di Città,Banzi,Potenza,Corso Vittorio Emanuele,40.870787,16.009259,Museo Di Città (Banzi)
3947,NO,SI,Culti - Esperienze Creative,346,Municipio,Cancellara,Potenza,Via Salvatore Basile 1,40.730785,15.924856,Municipio (Cancellara)
2848,NO,SI,"Culti – Esperienze Creative: San Chirico Nuovo, Inno A Madre Terra Di Culti Indigeni E Piccoli Misteri",145,Centro Giovanile Culturale Polifunzionale,San Chirico Nuovo,Potenza,Via Medaglia D'oro,40.677700,16.077212,Centro Giovanile Culturale Polifunzionale (San Chirico Nuovo)
1685,NO,SI,Cultura Dal Carcere,156,Chiesa del Cristo Flagellato (Ex Ospedale San Rocco),Matera,Matera,Via San Biagio 31,40.667515,16.607794,Chiesa del Cristo Flagellato (Ex Ospedale San Rocco) (Matera)
4099,NO,NO,"Cultura della Difesa, le Forze Armate a Matera 2019",156,Chiesa del Cristo Flagellato (Ex Ospedale San Rocco),Matera,Matera,Via San Biagio 31,40.667515,16.607794,Chiesa del Cristo Flagellato (Ex Ospedale San Rocco) (Matera)
3198,NO,SI,Cultura Di Pentecoste,176,Chiesa di Sant'Agnese,Matera,Matera,Piazza Sant'Agnese 13,40.649013,16.620438,Chiesa di Sant'Agnese (Matera)
2048,NO,SI,Cultura Di Pentecoste,176,Chiesa di Sant'Agnese,Matera,Matera,Piazza Sant'Agnese 13,40.649013,16.620438,Chiesa di Sant'Agnese (Matera)
3198,NO,SI,Cultura Di Pentecoste,448,Palazzo Arcivescovile,Matera,Matera,Piazza Duomo 7,40.666635,16.611435,Palazzo Arcivescovile (Matera)
2048,NO,SI,Cultura Di Pentecoste,448,Palazzo Arcivescovile,Matera,Matera,Piazza Duomo 7,40.666635,16.611435,Palazzo Arcivescovile (Matera)
2722,NO,SI,Cultura e lavoro: valori essenziali per lo sviluppo,156,Chiesa del Cristo Flagellato (Ex Ospedale San Rocco),Matera,Matera,Via San Biagio 31,40.667515,16.607794,Chiesa del Cristo Flagellato (Ex Ospedale San Rocco) (Matera)
3008,NO,SI,Cultura fa rima con impresa,461,Palazzo P. Lacava,Corleto Perticara,Potenza,Via Roma,40.382774,16.039697,Palazzo P. Lacava (Corleto Perticara)
2205,NO,NO,Cultura fa rima con impresa,200,Cineteatro Zi Nick,Corleto Perticara,Potenza,Corso Pietro Lacava,40.385382,16.0409092,Cineteatro Zi Nick (Corleto Perticara)
3774,NO,NO,"Cultura, Comunità, Impresa: I Valori Dell'Europa",323,MH Matera Hotel,Matera,Matera,Via Germania 10/0,40.720146,16.581085,MH Matera Hotel (Matera)
3458,NO,NO,Cultural Festival,331,Mulino Alvino,Matera,Matera,Via San Vito 28,40.677322,16.599103,Mulino Alvino (Matera)
3853,NO,NO,Culture e Paesaggi,132,Castello Di Lagopesole,Avigliano,Potenza,,40.807279,15.733108,Castello Di Lagopesole (Avigliano)
3695,NO,NO,Cuoro,307,Largo Giacomo Leopardi,Matera,Matera,Largo Giacomo Leopardi,40.6729692,16.5950847,Largo Giacomo Leopardi (Matera)
2865,NO,SI,Da Democrito alle stringhe,99,Casa Cava,Matera,Matera,Via San Pietro Barisano 47,40.668458,16.609254,Casa Cava (Matera)
4279,NO,NO,Da Matera A Masahhd Sulle Tracce Di Antonio Raffaele Giannuzzi Tra Italia Ed Iran,291,Ipogei Di Piazza San Francesco / Infopoint Matera 2019,Matera,Matera,Piazza San Francesco,40.6653788,16.6087177,Ipogei Di Piazza San Francesco / Infopoint Matera 2019 (Matera)
4228,NO,NO,Da Matera a Tus - Masahhd,291,Ipogei Di Piazza San Francesco / Infopoint Matera 2019,Matera,Matera,Piazza San Francesco,40.6653788,16.6087177,Ipogei Di Piazza San Francesco / Infopoint Matera 2019 (Matera)
4248,NO,SI,da Thauma a Il paese di Cuccagna,143,Cava Paradiso,Matera,Matera,Contrada La Palomba,40.680587,16.605294,Cava Paradiso (Matera)
4192,NO,SI,Da Trivigno a Hollywood. Robert Vignola e Rocco Brindisi: un oceano di emigranti illustri,409,Municipio,Trivigno,Potenza,Piazza Plebiscito,40.580265,15.989094,Municipio (Trivigno)
3942,NO,SI,da Visione Unica a Thauma,143,Cava Paradiso,Matera,Matera,Contrada La Palomba,40.680587,16.605294,Cava Paradiso (Matera)
2605,NO,SI,Dagli Enotri ad Olivetti,554,Sala Angela Ferrara,Cersosimo,Potenza,Via Fratelli Bandiera 1,40.046474,16.347927,Sala Angela Ferrara (Cersosimo)
2606,NO,SI,Dagli Enotri ad Olivetti,413,Municipio Guardia Perticara,Guardia Perticara,Potenza,Viale Principe Umberto 28,40.363237,16.098071,Municipio Guardia Perticara (Guardia Perticara)
4502,NO,NO,"Dai Nuraghi ai Sassi: storie di pietra, pietre di storia",275,Hotel Le Monacelle,Matera,Matera,Via Riscatto 15,40.667523,16.611559,Hotel Le Monacelle (Matera)
3166,NO,NO,Dal grammofono al grande schermo,330,Mula+,Latronico,Potenza,Vico Stabilimento,40.089328,15.981049,Mula+ (Latronico)
4617,NO,SI,Dal Racconto al Mito,47,Abitazione Privata,Matera,Matera,Via XX Settembre 25,40.66913,16.60614,"Abitazione Privata (Via XX Settembre, Matera)"
4614,NO,SI,Dal Racconto al Mito,47,Abitazione Privata,Matera,Matera,Via XX Settembre 25,40.66913,16.60614,"Abitazione Privata (Via XX Settembre, Matera)"
4616,NO,SI,Dal Racconto al Mito,47,Abitazione Privata,Matera,Matera,Via XX Settembre 25,40.66913,16.60614,"Abitazione Privata (Via XX Settembre, Matera)"
4618,NO,SI,Dal Sogno al Racconto,47,Abitazione Privata,Matera,Matera,Via XX Settembre 25,40.66913,16.60614,"Abitazione Privata (Via XX Settembre, Matera)"
4584,NO,SI,Dal Sogno al Racconto,47,Abitazione Privata,Matera,Matera,Via XX Settembre 25,40.66913,16.60614,"Abitazione Privata (Via XX Settembre, Matera)"
4615,NO,SI,Dal Sogno al Racconto,47,Abitazione Privata,Matera,Matera,Via XX Settembre 25,40.66913,16.60614,"Abitazione Privata (Via XX Settembre, Matera)"
4510,NO,NO,Dal Tirreno Allo Jonio' Premio Letterario Internazionale Itinerante,452,Palazzo Della Provincia,Matera,Matera,Via Domenico Ridola 60,40.662108,16.610203,Palazzo Della Provincia (Matera)
1604,NO,SI,Dall'Amore Nessuno Fugge,161,Chiesa di Cristo Re,Matera,Matera,Via Antonio Gramsci 11,40.66376,16.60311,Chiesa di Cristo Re (Matera)
2870,NO,SI,Dall'Amore Nessuno Fugge,598,Tribunale Di Matera,Matera,Matera,Viale Aldo Moro 26,40.666093,16.600215,Tribunale Di Matera (Matera)
3196,NO,NO,Dall’Acciaieria Alla Fabbrica Dei Suoni. L’Officina Artistica Di Giovanni Tamborrino,456,Palazzo Lanfranchi,Matera,Matera,Piazza Giovanni Pascoli 1,40.663230,16.610342,Palazzo Lanfranchi (Matera)
1641,NO,SI,Dalla Composizione Alla Musica Al Canto,140,Concattedrale di San Michele Arcangelo (Rapolla),Rapolla,Potenza,Via Regina Elena 35,40.97750,15.67729,Concattedrale di San Michele Arcangelo (Rapolla)
2739,NO,NO,Dalla spiga alla tavola,233,Fondazione Sassi,Matera,Matera,Via San Giovanni Vecchio 24,40.668090,16.609282,Fondazione Sassi (Matera)
2748,NO,NO,Dalla spiga alla tavola,233,Fondazione Sassi,Matera,Matera,Via San Giovanni Vecchio 24,40.668090,16.609282,Fondazione Sassi (Matera)
2676,NO,SI,Dalla tavola lucana al paradiso,232,Fondazione Matera-Basilicata 2019 - Ex Convento di Santa Lucia,Matera,Matera,Via Luigi Lavista 1,40.666144,16.606507,Fondazione Matera-Basilicata 2019 - Ex Convento di Santa Lucia (Matera)
2437,NO,SI,Dalla tavola lucana al paradiso,322,Mercato Rionale,Matera,Matera,Via Ascanio Persio 16,40.666311,16.605708,Mercato Rionale (Matera)
4274,NO,NO,"Dalla Terra alla Luna, il lucano che ci ha mandato nello spazio",208,Concept - Lunatic Bistrot,Bernalda,Matera,Via Cairoli 5,40.409626,16.688249,Concept - Lunatic Bistrot (Bernalda)
4765,NO,SI,Dalla vergogna all’orgoglio – Racconti dalla Basilicata arcobaleno,602,Via Delle Beccherie - Attività Commerciali,Matera,Matera,Via Delle Beccherie,40.6657857,16.6058698,Via Delle Beccherie - Attività Commerciali (Matera)
2410,NO,NO,Dana And Me,223,El Tablao,Matera,Matera,Via Cesare Beccaria 10,40.6686586,16.6047758,El Tablao (Matera)
4469,NO,NO,Daniel Karlsson trio,99,Casa Cava,Matera,Matera,Via San Pietro Barisano 47,40.668458,16.609254,Casa Cava (Matera)
4506,NO,NO,Daniele Scannapieco quartetto,552,Rosetta Jazz Club,Matera,Matera,Via Gugliemo Marconi 49,40.674467,16.6004679,Rosetta Jazz Club (Matera)
3827,NO,SI,Danze contro il Malocchio,143,Cava Paradiso,Matera,Matera,Contrada La Palomba,40.680587,16.605294,Cava Paradiso (Matera)
4077,NO,SI,Danze di Frontiera,456,Palazzo Lanfranchi,Matera,Matera,Piazza Giovanni Pascoli 1,40.663230,16.610342,Palazzo Lanfranchi (Matera)
3394,NO,NO,Dario Maltese,532,Podus - Mangio Dunque Sono,Grottole,Matera,Contrada Bosco Coste,40.621176,16.410949,Podus - Mangio Dunque Sono (Grottole)
2941,NO,SI,Dario Mitidieri,328,Mosto,Matera,Matera,Via Domenico Ridola 18,40.66415,16.60914,Mosto (Matera)
4160,NO,SI,Dark and Light: Femminile e Maschile (Yin e Yang),46,Abitazione Privata,Matera,Matera,Via E. Verricelli 2,40.65522,16.61647,"Abitazione Privata (Via Vercelli, Matera)"
4176,NO,SI,Dark and Light: l’Archetipo e la Storia,46,Abitazione Privata,Matera,Matera,Via E. Verricelli 2,40.65522,16.61647,"Abitazione Privata (Via Vercelli, Matera)"
4460,NO,SI,Daughters,119,Casa Mangione/Siggillino,Grassano,Matera,Corso Umberto I 42,40.63333,16.27731,Casa Mangione/Siggillino (Grassano)
4457,NO,SI,Daughters,119,Casa Mangione/Siggillino,Grassano,Matera,Corso Umberto I 42,40.63333,16.27731,Casa Mangione/Siggillino (Grassano)
4458,NO,SI,Daughters,119,Casa Mangione/Siggillino,Grassano,Matera,Corso Umberto I 42,40.63333,16.27731,Casa Mangione/Siggillino (Grassano)
3040,NO,NO,De Andrè inCanta Sario & Aly,223,El Tablao,Matera,Matera,Via Cesare Beccaria 10,40.6686586,16.6047758,El Tablao (Matera)
3833,NO,NO,DeeVa DJ - DJ Set,532,Podus - Mangio Dunque Sono,Grottole,Matera,Contrada Bosco Coste,40.621176,16.410949,Podus - Mangio Dunque Sono (Grottole)
2419,NO,SI,Degustazione teatralizzata,512,Piazza San Francesco,Matera,Matera,Piazza San Francesco,40.665178,16.609166,Piazza San Francesco (Matera)
2360,NO,NO,Dei Sensi tutti,623,Zuzù - Selezioni Di Gusto,Matera,Matera,Via Piave 11,40.6697663,16.6081526,Zuzù - Selezioni Di Gusto (Matera)
2772,NO,NO,Dei Sensi tutti,623,Zuzù - Selezioni Di Gusto,Matera,Matera,Via Piave 11,40.6697663,16.6081526,Zuzù - Selezioni Di Gusto (Matera)
3279,NO,NO,Dejavu: Negrita Cover Band,223,El Tablao,Matera,Matera,Via Cesare Beccaria 10,40.6686586,16.6047758,El Tablao (Matera)
3992,NO,SI,Del Tempo Fossile,330,Mula+,Latronico,Potenza,Vico Stabilimento,40.089328,15.981049,Mula+ (Latronico)
4137,NO,SI,Del Tempo Fossile,330,Mula+,Latronico,Potenza,Vico Stabilimento,40.089328,15.981049,Mula+ (Latronico)
2128,NO,NO,Delitti e segreti a Matera e provincia,76,Biblioteca Comunale,Policoro,Matera,Piazza Eraclea,40.211412,16.676997,Biblioteca Comunale (Policoro)
4326,NO,SI,Delle lettere fra Plovdiv e Matera,77,Biblioteca Provinciale T. Stigliani,Matera,Matera,Piazza Vittorio Veneto,40.667170,16.605515,Biblioteca Provinciale T. Stigliani (Matera)
1590,NO,SI,Democrazia è: il potere di realizzare,99,Casa Cava,Matera,Matera,Via San Pietro Barisano 47,40.668458,16.609254,Casa Cava (Matera)
3967,NO,SI,Dentro Caravaggio (2019),99,Casa Cava,Matera,Matera,Via San Pietro Barisano 47,40.668458,16.609254,Casa Cava (Matera)
2942,NO,SI,Dentro il Purgatorio: viaggio attraverso i luoghi e le figure dello spettacolo di Marco Martinelli e Ermanna Montanari,275,Hotel Le Monacelle,Matera,Matera,Via Riscatto 15,40.667523,16.611559,Hotel Le Monacelle (Matera)
4520,NO,SI,Desdemona non deve morire,589,Teatro Comunale Guerieri,Matera,Matera,Piazza Vittorio Veneto 23,40.666918,16.605920,Teatro Comunale Guerieri (Matera)
3380,NO,SI,Design and Shame,57,Archivio Di Stato Di Matera,Matera,Matera,Via Tommaso Stigliani 25,40.668794,16.607977,Archivio Di Stato Di Matera (Matera)
2340,NO,NO,Destinazione Primitivo,607,Via P. Nenni,Matera,Matera,Via Madonna Delle Virtù,40.668088,16.611716,Via P. Nenni (Matera)
3793,NO,NO,Detective al Castello del Malconsiglio,131,Castello Del Malconsiglio,Miglionico,Matera,Piazza Castello,40.568191,16.500479,Castello Del Malconsiglio (Miglionico)
2318,NO,NO,Detective al Museo Domenico Ridola,423,Museo Archeologico Nazionale Domenico Ridola,Matera,Matera,Via Domenico Ridola 24,40.663899,16.609270,Museo Archeologico Nazionale Domenico Ridola (Matera)
4363,NO,SI,Detective tra i Sassi: 1514 - Scacco al Conte,512,Piazza San Francesco,Matera,Matera,Piazza San Francesco,40.665178,16.609166,Piazza San Francesco (Matera)
3849,NO,SI,Di fronte agli occhi degli altri e Danza Cieca,592,Teatro Ludovico Quaroni,Matera,Matera,Piazza Monte Grappa,40.66077,16.53582,Teatro Ludovico Quaroni (Matera)
2634,NO,NO,Di Luce Propria Artigianato E Arte,238,Galleria CNA Basilicata,Matera,Matera,Piazza Duomo,40.6665099,16.6109633,Galleria CNA Basilicata (Matera)
3436,NO,SI,Di Luna in luna,512,Piazza San Francesco,Matera,Matera,Piazza San Francesco,40.665178,16.609166,Piazza San Francesco (Matera)
4209,NO,SI,Di notte nei Sassi,514,Piazza San Giovanni,Matera,Matera,Piazza San Giovanni,40.6676,16.60803,Piazza San Giovanni (Matera)
